creators,title,description,geoContext,minDate,maxDate,latitude,longitude
"R.W. Mathisen, H.S. Sivan",Ste-Gemmes-sur-Loire,"An ancient place, cited: BAtlas 14 E1 Ste-Gemmes-sur-Loire",Ste-Gemmes-sur-Loire,-30,640,47.420902,-0.556862
"E.J. Keall, M. Roaf",Qal'eh Kharabeh,"An ancient place, cited: BAtlas 96 C2 Qal'eh Kharabeh",Qal'eh Kharabeh,-330,640,37.087259,54.41742
"C. Foss, G. Reger, S. Mitchell",Satala,"An ancient place, cited: BAtlas 56 G4 Satala",Adala,-30,640,38.5792,28.267472
"M. Pearce, R. Peretto, P. Tozzi",[Castrum Volaenes],"An ancient place, cited: BAtlas 40 A1 [Castrum Volaenes]",Volano?,300,640,45.918526,11.063331
"E.M. Meyers, J.P. Brown",Tibetha,"An ancient place, cited: BAtlas 69 B5 Tibetha",et Tayyibe ISR,-30,640,32.266524,35.009661
"J. Kunow, C. Haselgrove",Mosomagus,"An ancient place, cited: BAtlas 11 F3 Mosomagus",Mouzon,-30,2100,49.580788,5.105463
E.W. Haley,Forum Limicorum,"An ancient place, cited: BAtlas 24 D2 Forum Limicorum",Monte do Viso (Sarreaus),-30,640,42.086263,-7.603322
"M. Roaf, St J. Simpson",Bint al-Emir/Daskara?,"An ancient place, cited: BAtlas 91 F4 Bint al-Emir/Daskara?",Bint al-Emir,300,640,33.924602,44.983288
E.W.B. Fentress,Vahartanenses,"An ancient place, cited: BAtlas 31 D3 Vahartanenses",Mechta Skaif,-30,640,36.550096,5.983386
C. Foss,Berg(o)ule/Arkadioupolis,"An ancient place, cited: BAtlas 52 A2 Berg(o)ule/Arkadioupolis",Lüleburgaz,-30,640,41.4017405,27.352699
R. Müller Wollermann,Krokodilopolis/Ptolemais Euergetis,An ancient city in the Heptanomis and the capital of Arsinoites nome. The ancient Egyptian name of the site was Shedyet and in Pharaonic times it was a major cult center for the god Sobek.,Medinet el-Fayyum,-2600000,2100,29.3149635,30.8399565
A.S. Esmonde Cleary,Baldock,A pre-Roman and Romano-British settlement was located at Baldock along the Icknield Way.,Baldock,-30,640,51.9897381,-0.1809379
S. Mitchell,Korna?,"An ancient place, cited: BAtlas 66 A1 Korna?",Dinorna (hüyük),300,640,37.489139,32.467014
"E.M. Meyers, J.P. Brown",Abila Lysaniou,"An ancient place, cited: BAtlas 69 D2 Abila Lysaniou",Suq Le Basi Barada SYR,-30,640,33.627108,36.1159485
"M. Pearce, R. Peretto, P. Tozzi",Tarvisium,"Tarvisium (Treviso) is a settlement located in the plain of the Silis river, not far from the Via Claudia Augusta.",Treviso,-330,2100,45.666251,12.242061
B. Isaac,Aphekou Pyrgos,"An ancient place, cited: BAtlas 70 F1 Aphekou Pyrgos",Migdal Afeq/Medjel Yaba,-330,640,32.090798,34.951852
zrosalinsky,Ḥorbat 'Uẓa,Settlement east of Acre with remains from the Neolithic through the 12th century. The site was destroyed to make a highway in 1991.,NA,-10000,1291,32.91418,35.151529
"C. Foss, G. Reger",Mastaura,"An ancient place, cited: BAtlas 61 G2 Mastaura",Mastavra,-30,640,37.9504305,28.3528415
A.S. Esmonde Cleary,Uxacona,A Roman site with evidence for a series of ditched enclosures of the first century.,Red Hill,-30,640,52.6950985,-2.4070175
R.B. Hitchner,Thimida,"An ancient place, cited: BAtlas 32 E2 Thimida",Henchir-Tindja,-330,640,37.16244,9.763771
"J.P. Brown, P.-L. Gatier",Otthara,"An ancient place, cited: BAtlas 68 D5 Otthara",Ghunthur?,-30,640,34.422928,37.173068
"C. Haselgrove, J. Kunow",Marcomagus?,"Marcomagus was a road station along the Roman road from Augusta Treverorum to Colonia Agrippinensis, the modern Nettersheim-Marmagen.",Nettersheim-Marmagen GER,-30,640,50.4772858,6.6220457
A. Bernand,Taya,"An ancient place, cited: BAtlas 74 E3 Taya","Ezbet Tuwa, near Tanta",-30,640,30.7709265,31.004611
"J. Fossey, J. Morin",Naupactus,"Originally a city of the Ozolian Locrians, Naupactus eventually fell to Athens; under Macedonian rule Philip II ceded it to the Aetolians.",Lepanto/Navpaktos,-550,640,38.399726,21.831267
C. Foss,Hebdomon,"An ancient place, cited: BAtlas 53 A3 Hebdomon",Bakırköy,300,640,40.976033,28.876487
H. Bender,Kleinlangheim,"An ancient place, cited: BAtlas 12 D3 Kleinlangheim",Kleinlangheim,-30,640,49.770684,10.286554
"M. Šašel Kos, P. Kos",Celeia,Celeia was an important settlement in Noricum.,Celje SVN,-30,2100,46.219721,15.27184
A.G. Poulter,Babadag,"An ancient place, cited: BAtlas 22 F4 Babadag",Babadag,-30,640,44.891249,28.717592
E.W. Haley,Caladunum,"An ancient place, cited: BAtlas 24 D3 Caladunum",Vilar de Perdizes (Montalegre)? POR,-30,640,41.856332,-7.634577
"M. Pearce, P. Tozzi",Brixia,An ancient settlement. Modern Brescia in Italy.,Brescia,-550,2100,45.539773,10.223135
"T. Sinclair, P.-L. Gatier",Birtha,"An ancient place, cited: BAtlas 67 F2 Birtha",Birecik,-550,640,37.025429,37.978775
"H.S. Sivan, R.W. Mathisen",Sikor Limen?,"An ancient place, cited: BAtlas 14 C1 Sikor Limen?",Prigny,-30,640,47.066094,-1.981225
"I.E.M. Edlund Berry, A.M. Small",Heraclea,Heraclea was an ancient city of Magna Graecia.,near Policoro,-550,640,40.2197296732,16.6703978702
"C. Haselgrove, J. Kunow",Contrua?,"An ancient place, cited: BAtlas 11 H2 Contrua?",Kobern-Gondorf GER,-30,640,50.308279,7.459608
E.N. Borza,Charakoma,"An ancient place, cited: BAtlas 50 C3 Charakoma",Drymos?,-30,640,40.793957,22.959993
gmckee,Tall-e Geser,Village in Iran inhabited since the 6th millennium BCE.,NA,-6500,2100,31.3582590855,49.4193956725
"S.E. Kroll, M. Roaf, St J. Simpson, T. Sinclair",Deyrulzafaran,"An ancient place, cited: BAtlas 89 C3 Deyrulzafaran",Deyrulzafaran,300,640,37.296138,40.778357
J.J. Wilkes,Kolobaise,"An ancient place, cited: BAtlas 49 D2 Kolobaise",Treskovec MAC,-30,640,41.351447,21.562403
"J. Fossey, J. Morin",Chalcis,"Chalkis was a settlement on Euboea, inhabited from the sub-Neolithic period, which played an important role in Greek colonisation of the Mediterranean in the 8th century BC. It was part of the Delian League in the 5th century BC and the Second Athenian Sea League in the 4th century BC. In Hellenistic times it was one of the three 'fetters of Greece' used by Macedon to control Greece. It came under Roman control in 197 BC.","Khalkis, formerly Negroponte",-750,640,38.457139,23.621937
"M. Pearce, P. Tozzi",*Civitas Camunnorum,"An ancient place, cited: BAtlas 39 G2 *Civitas Camunnorum",Cividate Camuno,-30,640,45.94345,10.278604
"M. Šašel Kos, P. Kos",Arba,"An ancient place, cited: BAtlas 20 B5 Arba",on Rab Is. CRO,-550,640,44.754525,14.761834
C. Foss,Sora,"An ancient place, cited: BAtlas 86 C2 Sora",Zora/Kaleköy,300,640,41.139609,32.6224
R.B. Hitchner,Ain-Terguellache,"An ancient place, cited: BAtlas 32 E3 Ain-Terguellache",Ain-Terguellache,-330,640,36.94936,9.763712
"I.E.M. Edlund Berry, A.M. Small",Potentia,"An ancient place, cited: BAtlas 45 C3 Potentia",Potenza,-330,640,40.637601,15.801741
C. Foss,S. Mamas,"An ancient place, cited: BAtlas 53 B2 S. Mamas",Dolmabahçe?,300,640,41.03836,28.996951
T. Drew Bear,Akören,"An ancient place, cited: BAtlas 62 E2 Akören",Akören,-30,640,39.637436,30.646995
"H.S. Sivan, R.W. Mathisen",Senaparia?,"An ancient place, cited: BAtlas 14 G1 Senaparia?",Sennevières,300,640,47.106082,1.102094
"F.T. Hiebert, P.L. Kohl",Farkhar,"An ancient place, cited: BAtlas 99 D3 Farkhar","Farkhar, Dasht-i Bala AFG",-30,640,36.505788,69.908774
David Braund,Gratiana?,"An ancient place, cited: BAtlas 23 C3 Gratiana?",near Murighiol ROM,-330,640,45.036639,29.161736
"H.S. Sivan, R.W. Mathisen",Crovio,"An ancient place, cited: BAtlas 14 E1 Crovio",Crû?,300,640,47.251557,-0.219138
"St J. Simpson, F. Hiebert, P.L. Kohl",Andkhui,"An ancient place, cited: BAtlas 98 F2 Andkhui","Andkhui, AFG",300,640,36.925904,65.119297
"S.E. Kroll, M. Roaf, St J. Simpson, T. Sinclair",Tell Tawila,"An ancient place, cited: BAtlas 89 C4 Tell Tawila","Tell Tawila, IRQ",-30,640,36.677162,40.293383
H. Bender,Maladers,"An ancient place, cited: BAtlas 19 B3 Maladers","Maladers, SWI",-330,640,46.836367,9.559521
R.J.A. Wilson,Hybla Heraia,"Hybla Heraia (modern Ragusa) was an indigenous center of ancient Sicily that came into contact with Greek and, later, Roman and Byzantine cultures.",Ragusa Ibla,-750,2100,36.9266329,14.7472493
C. Foss,Heraion/Hiereia,"An ancient place, cited: BAtlas 53 B3 Heraion/Hiereia",Fener burnu,300,640,40.969562,29.033945
R.B. Hitchner,Thimida Bure,"An ancient place, cited: BAtlas 32 D4 Thimida Bure",Kouchbatia,-330,640,36.489223,9.131302
E.W. Haley,Lansbrica/Lais,"An ancient place, cited: BAtlas 24 C2 Lansbrica/Lais",Lás (S. Amaro),-330,640,42.359912,-8.030578
H. Bender,Praha,"An ancient place, cited: BAtlas 12 H2 Praha","Praha, Prague (Bubeneč, Hrdlořezy, Kobylisy, Michle) CZE",-30,640,50.087986,14.420614
J.J. Wilkes,Zlot,"An ancient place, cited: BAtlas 21 D5 Zlot","Zlot, YUG",-30,640,44.013358,21.984905
"F.T. Hiebert, P.L. Kohl",Mirazakul tepe,"An ancient place, cited: BAtlas 99 B2 Mirazakul tepe","Mirazakul tepe, UZB",-30,640,37.242653,67.321247
"J. Fossey, J. Morin",Daphnous,"An ancient place, cited: BAtlas 55 D3 Daphnous",Ag. Konstantinos,-750,640,38.748674,22.878861
S.T. Parker,Arindela,"An ancient place, cited: BAtlas 71 B4 Arindela",Gharandal,-30,640,30.729289,35.650694
"P.-L. Gatier, T. Sinclair",Catabana,"An ancient place, cited: BAtlas 67 E2 Catabana",(Old) Bağdin,-30,640,37.467406,37.34102
G. Wagner,Beleida,"An ancient place, cited: BAtlas 79 C3 Beleida",Beleida,-30,640,25.442969,30.49563
H. Bender,Kelheim,"An ancient place, cited: BAtlas 12 E4 Kelheim",Kelheim,-330,640,48.9156805,11.8528495
M.U. Erdosy,Kalmunai,"An ancient place, cited: BAtlas 5 inset Kalmunai","Kalmunai, SRI",300,640,7.396337,81.835714
"A. Hausleiter, M. Roaf, St J. Simpson, R. Wenke",U092,"An ancient place, cited: BAtlas 93 B2 U092","U092, part of Ishin al-M'ammar IRQ",-750,640,31.632631,45.70778
E.W.B. Fentress,Cedias,"An ancient place, cited: BAtlas 34 F2 Cedias",Henchir Ounkif,-30,640,35.255479,7.274729
S. Loseby,Lombren,"An ancient place, cited: BAtlas 15 D1 Lombren",Lombren,-750,2100,44.190374,4.657828
J.H.F. Bloemers,Beelen,"An ancient place, cited: BAtlas 10 E5 Beelen","Beelen, GER",-30,640,51.931149,8.114153
J.H.F. Bloemers,Wijster,"An ancient place, cited: BAtlas 10 C4 Wijster",Wijster,-30,640,52.815232,6.515659
T.B. Mitford,Zara,"An ancient place, cited: BAtlas 64 F1 Zara",Zara,-30,640,39.89671,37.755439
"T. Sinclair, David Braund",Ad Vincesimum/Magnana,"An ancient place, cited: BAtlas 87 E4 Ad Vincesimum/Magnana",Maçka,-30,640,40.810026,39.617574
"E.M. Meyers, J.P. Brown",Arbela,"An ancient place, cited: BAtlas 69 C4 Arbela",Irbid JOR,300,2100,32.556411,35.848706
G. Wagner,el-Qasr,"An ancient place, cited: BAtlas 79 D5 el-Qasr",el-Qasr,-30,640,24.486558,30.619062
"A. Bursche, R. Warner",Vallhagar,"An ancient place, cited: BAtlas 2 G2 Vallhagar","Vallhagar, SWE",300,640,57.333805,18.209431
W.V. Harris,Hatria (Picenum),An ancient city of Picenum that may have originated as colony established by Etruscans from Adria in the Veneto region. An alternate narrative suggests that the city's origins may be as a late sixth century B.C. colony founded by Aegina.,Atri,-750,640,42.5802,13.981081
C. Foss,Yılanlı,"An ancient place, cited: BAtlas 86 C3 Yılanlı",Yılanlı,-30,640,40.433652,32.154288
D.F. Graf,Abu el-Nusur,"An ancient place, cited: BAtlas 76 G1 Abu el-Nusur","Abu el-Nusur, JOR",-330,640,30.008124,35.487534
R.B. Hitchner,Djebel Touta,"An ancient place, cited: BAtlas 32 E3 Djebel Touta",Djebel Touta,-30,640,36.882914,9.516334
"M. Pearce, P. Tozzi",Voberna,"An ancient place, cited: BAtlas 39 H2 Voberna",Vobarno,-30,640,45.64235,10.50093
D.J. Mattingly,Zuila,"An ancient place, cited: BAtlas 36 E5 Zuila",Zuila,-30,640,26.159645,15.136895
"C. Foss, G. Reger",Pisye,"An ancient place, cited: BAtlas 61 G3 Pisye",Pissiköy,-330,640,37.18655,28.287227
C. Foss,Çetikören,"An ancient place, cited: BAtlas 86 B3 Çetikören",Çetikören,-30,640,40.685453,31.915543
C. Foss,Bithynion/Claudiopolis/Hadriana,"An ancient settlement in Bithynia, modern Bolu in Turkey.",Bolu,-1750,2000,40.7561925,31.5858565
"F. Hiebert, P.L. Kohl, St J. Simpson",Haroba koshuk,"An ancient place, cited: BAtlas 98 C1 Haroba koshuk","Haroba koshuk, TKM",300,640,37.616681,62.149999
"R.W. Mathisen, H.S. Sivan",Loudun,"An ancient place, cited: BAtlas 14 F2 Loudun",Loudun,-30,640,47.009093,0.081864
"J. Fossey, J. Morin",Olmones,"An ancient place, cited: BAtlas 55 E3 Olmones",N Pavlon,-550,640,38.541908,23.098888
H. Bender,Altenstadt,"An ancient place, cited: BAtlas 19 C2 Altenstadt","Altenstadt, GER",300,640,47.823158,10.872233
"M. Pearce, P. Tozzi",Bergomum,"Originally a center of the archaic Golasecca culture, Bergomum became a municipium of the tribus Voturia. In 452 Attila captured and razed the city.",Bergamo,-550,640,45.694909,9.669949
"C. Foss, S. Mitchell",Sidyma,A town of Lycia located on the southern slope of Mt. Cragus and northwest of the mouth of the Xanthus river.,Dodurga,-330,640,36.4095586716,29.1926182426
"Jr., F.H. Stanley, R.C. Knapp",Arcos de la Frontera,"An ancient place, cited: BAtlas 26 E5 Arcos de la Frontera",Arcos de la Frontera,-30,1453,36.750651,-5.812505
"H.S. Sivan, R.W. Mathisen",Noviodunum?/Nevirnum?,"An ancient place, cited: BAtlas 14 I1 Noviodunum?/Nevirnum?",Nevers,-330,640,46.9871685,3.159551
S. Mitchell,*Anzoulada,"An ancient place, cited: BAtlas 63 C4 *Anzoulada",probably at Oğuzeli,300,640,38.339036,33.075334
"H.S. Sivan, R.W. Mathisen",Alingo,"An ancient place, cited: BAtlas 14 E4 Alingo",Langon,-30,640,44.555584,-0.249733
"I.E.M. Edlund Berry, A.M. Small",Calle,"An ancient place, cited: BAtlas 45 D3 Calle",Calle,-30,640,40.683925,16.133766
"M. Pearce, P. Tozzi",Sebuinus Vicus,"An ancient place, cited: BAtlas 39 D2 Sebuinus Vicus",Angera,-30,640,45.774415,8.571296
T. Drew Bear,Diokleia,"An ancient place, cited: BAtlas 62 C4 Diokleia",Ahırhisar,-30,640,38.6638015,29.88814
"C. Haselgrove, J. Kunow",Geisskopf,"An ancient place, cited: BAtlas 11 H4 Geisskopf","Geisskopf, GER",300,640,48.393445,7.990365
T.W. Potter,Manliana,"An ancient place, cited: BAtlas 30 D4 Manliana","Khemis Miliana, formerly Affreville",-30,640,36.26087,2.220412
J.H.F. Bloemers,Ezinge,"An ancient place, cited: BAtlas 10 C3 Ezinge",Ezinge,-30,640,53.311169,6.439244
"C. Foss, G. Reger",Stadia,"An ancient place, cited: BAtlas 61 F4 Stadia",Datça,-30,640,36.742208,27.648272
T. Drew Bear,Panasion,"An ancient place, cited: BAtlas 62 C4 Panasion",Banaz Köy,-30,640,38.765879,29.753273
C. Foss,Drepanon/Helenopolis,"An ancient place, cited: BAtlas 52 F3 Drepanon/Helenopolis",Hersek,-30,640,40.721717,29.502087
D.F. Graf,Tell Mahrad,"An ancient place, cited: BAtlas 76 D4 Tell Mahrad",Tell Mahrad,300,640,28.709147,33.591143
R.B. Hitchner,*Giufi,"An ancient place, cited: BAtlas 32 E3 *Giufi",Henchir-Bir-Mcherga,-30,640,36.52,9.959979
"Jr., F.H. Stanley, R.C. Knapp",Moura,"An ancient place, cited: BAtlas 26 C3 Moura","Moura, POR",-550,640,38.144138,-7.449427
C. Foss,Poleatikon,"An ancient place, cited: BAtlas 53 B3 Poleatikon",Bostancı,300,640,40.956377,29.088941
R. Müller Wollermann,Euhemereia,"An ancient place, cited: BAtlas 75 D2 Euhemereia",Qasr el-Banat,-330,2100,29.383296,30.533289
"A. Hausleiter, M. Roaf, E.J. Keall",KS126,"An ancient place, cited: BAtlas 92 D4 KS126",KS126,300,640,32.371016,48.192284
"E.M. Meyers, J.P. Brown",Kaparasima,"An ancient place, cited: BAtlas 69 B4 Kaparasima",Kafr Sumei'? ISR,-30,640,32.964971,35.303053
E.W. Haley,Lancia/Lance,"An ancient place, cited: BAtlas 24 F2 Lancia/Lance",El Castro (Villasabariego),-30,640,42.5297477,-5.4308097
"C. Foss, S. Mitchell, G. Reger",Okcular,"An ancient place, cited: BAtlas 56 D3 Okcular","Okcular, fortified settlement with church, NW Perperene; Theodosiopolis?",300,640,39.27814,26.968352
A.G. Poulter,Shkorpilovtsi,"An ancient place, cited: BAtlas 22 E5 Shkorpilovtsi","Shkorpilovtsi, BUL",300,640,42.96312,27.878381
R.B. Hitchner,Tubernuc,"An ancient place, cited: BAtlas 32 F3 Tubernuc",Henchir-Ain-Tebornok,-330,640,36.53214665,10.4564245
"C. Haselgrove, J. Kunow",Vosolvia,"An ancient place, cited: BAtlas 11 H2 Vosolvia",Oberwesel GER,-30,640,50.107417,7.726596
R.J.A. Wilson,Giarranauti,"An ancient place, cited: BAtlas 47 F4 Giarranauti","Giarranauti, agricultural village",300,640,37.131091,15.01171
"S.E. Kroll, M. Roaf, St J. Simpson, T. Sinclair",Naqadeh tepe,"An ancient place, cited: BAtlas 89 H4 Naqadeh tepe","Naqadeh tepe, IRN",300,640,36.953777,45.399917
David Braund,Meschistha,Meschistha (modern Mtskheta (Georgian: მცხეთა)) is an ancient city in Georgia and was the capital of the Hellenistic kingdom of Iberia. Meschistha became a UNESCO World Heritage Site in 1994.,Mtskheta,-330,2000,41.839298,44.706
E.N. Borza,Krupište,"An ancient place, cited: BAtlas 50 B1 Krupište","Krupište, fortified settlement MAC",300,640,41.875786,22.24334
"J. Bennet, G. Reger",Ag. Pavlos,"An ancient place, cited: BAtlas 60 C3 Ag. Pavlos","Ag. Pavlos, Kaloi Limenes",-30,640,34.930553,24.799669
S. Loseby,Lédignan,"An ancient place, cited: BAtlas 15 C2 Lédignan",Lédignan,-30,640,43.98922,4.106828
D.J. Mattingly,el-Aguz,"An ancient place, cited: None",el-Aguz,-30,640,28.308013,28.922599
"C. Foss, S. Mitchell",Hippoukome,"An ancient place, cited: BAtlas 65 B4 Hippoukome",İtasar,-330,640,36.8335245,29.0269935
"I.E.M. Edlund Berry, A.M. Small",S. Giorgio,"An ancient place, cited: BAtlas 45 G3 S. Giorgio",S. Giorgio,300,640,40.581539,17.883568
R.B. Hitchner,Henchir-Ganndouza,"An ancient place, cited: BAtlas 32 D3 Henchir-Ganndouza",Henchir-Ganndouza,-30,640,36.928831,9.432687
D.J. Mattingly,Gabu Iunes,"An ancient place, cited: BAtlas 38 D1 Gabu Iunes",Gabu Iunes,-30,640,32.809071,22.045777
"E.M. Meyers, J.P. Brown",Bersabe,Khirbet Abu esh-Sheba' (Bersabe in Galilee) was a fortified site used during the Jewish revolt against the Romans. It is located on the boundary between the lower and upper Galilee.,Khirbet Anu esh Shiba ISR,-2600000,2000,32.930876,35.407812
David Braund,Lampas,"An ancient place, cited: BAtlas 23 H4 Lampas",Biyuk-Lambat,-330,640,44.601117,34.34999
W.V. Harris,*Aufenginum,"An ancient place, cited: BAtlas 42 F4 *Aufenginum",Fagnano Alto,-30,640,42.254057,13.574956
R.B. Hitchner,Mennzel-bel-Gassem,"An ancient place, cited: BAtlas 32 H3 Mennzel-bel-Gassem",Mennzel-bel-Gassem,-330,640,36.943192,10.995119
N. Purcell,Caiatia,A Samnite town that eventually became a Roman municipium of the tribus Falerna ca. 89 B.C.,Caiazzo,-330,2100,41.178153,14.364282
N. Purcell,Aletrium,A Hernican hill town that formed part of a sixth century B.C. defensive league against Volscian and Samnite aggression and allied itself to Tarquinius Superbus. Rome eventually took Aletrium in 306 B.C.; by the first century B.C. the site was a Roman municipium.,Alatri,-330,2100,41.724822,13.343955
A.S. Esmonde Cleary,Korinion/Cironium,Korinion/Cironium (also referred to as Corinium Dobunnorum) was the second largest town of Roman Britain.,Cirencester,-30,2100,51.71138,-1.971806
"A. Hausleiter, E.J. Keall, M. Roaf",Qaleh-i Yazdigird,"An ancient place, cited: BAtlas 92 A2 Qaleh-i Yazdigird",Qaleh-i Yazdigird,-30,640,34.585756,45.996431
"E.M. Meyers, J.P. Brown",Sogane,"An ancient place, cited: BAtlas 69 C4 Sogane",el Yahudiye SYR,-30,640,32.927343,35.691236
E.W.B. Fentress,*Uzinaza,"An ancient place, cited: BAtlas 34 A2 *Uzinaza",Saneg,-30,640,35.85023,2.89989
J.J. Wilkes,Gradište,"An ancient place, cited: BAtlas 21 E6 Gradište","Gradište, settlement, mining YUG",-30,640,43.503016,22.260537
W.M. Murray,Nicopolis,An ancient city of Epirus founded by Octavian ca. 31 B.C. to commemorate his victory over Marcus Antonius and Cleopatra at the Battle of Actium.,Palaio-Preveza,-30,640,39.0157,20.7360035
"R.W. Mathisen, H.S. Sivan",Tausiriacum?,"An ancient place, cited: BAtlas 14 G2 Tausiriacum?","Toiselay, Cm. Châtillon-sur-Indre",300,640,46.986751,1.174934
"T. Sinclair, David Braund",Archaiopolis,"An ancient place, cited: BAtlas 87 H2 Archaiopolis",Nokalakevi GEO,-330,640,42.357222,42.193889
"M. Roaf, T. Sinclair, S.E. Kroll, St J. Simpson",Hajji Firuz tepe,An archaeological site located in the West Azarbaijan province in northwestern Iran that was excavated between 1958 and 1968 by the University of Pennsylvania Museum of Archaeology and Anthropology.,"Hajji Firuz tepe, SE Hasanlu IRN",-9000,640,36.9946656,45.474282
"R.W. Mathisen, H.S. Sivan",Luciliacus,"An ancient place, cited: BAtlas 14 G1 Luciliacus",Luzillé?,300,640,47.261699,1.060398
J.J. Wilkes,Stuberra,"An ancient place, cited: BAtlas 49 D2 Stuberra",Čepigovo MAC,-330,2100,41.2437372,21.3972749
"J. Kunow, C. Haselgrove",Camaracum,Camaracum was the capital of the civitas of the Nervii.,Cambrai,-30,2100,50.175165,3.234282
S.T. Parker,Khirbet el-Batra,"An ancient place, cited: BAtlas 71 B3 Khirbet el-Batra",Khirbet el-Batra,-330,640,31.118694,35.787822
"J. Kunow, C. Haselgrove",Iatinon/Fixtuinum,"Iatinon/Fixtuinum was a city of the the city of the Meldi, a people of Gallia Lugdunensis.",Meaux,-30,2100,48.9576983333,2.88036466667
T.W. Potter,Rusguniae,"An ancient place, cited: BAtlas 30 F3 Rusguniae","Tementfoust, formerly Cap Matifou",-330,2100,36.7990945,3.2378935
David Braund,Borisovka,"An ancient place, cited: BAtlas 84 C4 Borisovka","Borisovka, near Novorossiysk",-550,640,44.776322,37.689236
J.J. Wilkes,Višegrad,"An ancient place, cited: BAtlas 21 B6 Višegrad","Višegrad, BOS",-30,640,43.785361,19.293184
"C. Haselgrove, J. Kunow",Mutterstadt,"An ancient place, cited: BAtlas 11 I3 Mutterstadt","Mutterstadt, GER",-30,640,49.443823,8.354279
"I.E.M. Edlund Berry, A.M. Small",Valetium/Balesium,"An ancient place, cited: BAtlas 45 H3 Valetium/Balesium",Valesio,-750,640,40.512187,18.034033
S.E. Kroll,Ardabil,[Ardabil] was an ancient city in Iranian Azerbaijan.,Ardabil,-2000,2100,38.24647,48.295051
S. Mitchell,Nandianulus/Nazianzos,"An ancient place, cited: BAtlas 63 E4 Nandianulus/Nazianzos",Nenezigözü,-30,640,38.398047,34.3497935
S.M. Burstein,Berenice Panchrysos?,"An ancient place, cited: BAtlas 81 F4 Berenice Panchrysos?",Daraheib SUD,-330,640,21.882527,35.205045
"H.S. Sivan, R.W. Mathisen",Entrammes,"An ancient place, cited: BAtlas 14 E1 Entrammes",Entrammes,-330,640,47.9992815,-0.7164565
"C. Foss, S. Mitchell",Araxa,"An ancient place, cited: BAtlas 65 B4 Araxa",Ören,-330,640,36.7513153333,29.3837026667
"David Braund, T. Sinclair",Libiopolis,"An ancient place, cited: BAtlas 87 E3 Libiopolis",Yuvabolu,-30,640,41.068855,39.198236
J.J. Wilkes,Dolno Kobile,"An ancient place, cited: BAtlas 49 E1 Dolno Kobile","Dolno Kobile, settlement and mines BUL",-30,640,42.515038,22.545669
S.T. Parker,Mamopsora,"An ancient place, cited: BAtlas 71 B4 Mamopsora",Buseira,-30,640,30.733642,35.6104086667
"J.P. Brown, E.M. Meyers",*Zoraa/Zerabene,"An ancient place, cited: BAtlas 69 D4 *Zoraa/Zerabene",Ezra SYR,-30,640,32.873194,36.25657
"M. Šašel Kos, P. Kos",Segestica/Siscia,Segestica/Siscia is an Iron Age settlement recorded by Strabo. It was located at the confluence of three rivers and was used as a staging area for a campaign against the Dacians.,Sisak CRO,-550,2100,45.483168,16.371388
D.J. Mattingly,Aquae Tacapitanae,"An ancient place, cited: BAtlas 35 B1 Aquae Tacapitanae",el-Hamma TUN,-30,640,33.883611,9.794514
E.W.B. Fentress,Lamiggig(a?),"An ancient place, cited: BAtlas 34 E2 Lamiggig(a?)","Seriana, formerly Pasteur",-30,640,35.692292,6.185001
D.J. Mattingly,Beit Tamer,"An ancient place, cited: BAtlas 38 D1 Beit Tamer","Beit Tamer, Beit Ammer",-30,640,32.789897,22.308823
"E.J. Keall, M. Roaf",Qal'eh Yasaqi,"An ancient place, cited: BAtlas 96 C3 Qal'eh Yasaqi",Qal'eh Yasaqi,-330,640,36.828941,54.334066
"Jr., F.H. Stanley, R.C. Knapp",Carteia/Calpe/Karpessos,"A Phoenician and Roman town in Spain located on the Bay of Gibraltar. The site played a strategic role in the Punic Wars, and was given the rights of a Latin colony in 171 BC.","El Rocadillo, near S. Roque",-750,640,36.1851914761,-5.40939078138
R.B. Hitchner,Masculula,"An ancient place, cited: BAtlas 32 C4 Masculula",Henchir-Guergour,-30,640,36.354507,8.517999
D.J. Mattingly,Balagrae,"Balagrae (modern El Beida or Al Bayda, Libya) was an ancient settlement of Cyrenaica and is perhaps best known for its Asclepium.",Beida,-330,640,32.761399,21.756437
R.B. Hitchner,Gastal,"An ancient place, cited: BAtlas 33 B1 Gastal","Gastal, Henchir-el-Goussa ALG",-30,640,35.4164835,8.2493435
G. Wagner,Hatteiyet Zakaran,"An ancient place, cited: BAtlas 79 D4 Hatteiyet Zakaran",Hatteiyet Zakaran,-30,640,24.756376,30.509094
S. Loseby,Theline/Col. Arelate/Constantina,An ancient settlement located at modern Arles in France.,Arles,-750,2100,43.677616,4.630799
"C. Foss, S. Mitchell",Phellos,A Lycian settlement located near modern Çukurbağ.,Çukurbağ,-550,1999,36.242821,29.662237
E. Bertrand,Col. Lugdunum,"Lugdunum (modern Lyon in France) was a Roman military colony from 43 B.C. and a major center in Gaul. Marcus Agrippa was involved in its expansion and two Roman emperors, Claudius and Caracalla, were born there.",Lyon,-550,2100,45.758866,4.8194815
"M. Pearce, P. Tozzi",Mantua,Mantua (modern Mantova) is a city of Etruscan origin that received Roman citizenship in 49 B.C.,Mantua,-550,2100,45.160646,10.7976015
S.T. Parker,Zoara,"An ancient place, cited: BAtlas 71 A3 Zoara",Ghor es-Safi,-30,640,31.027273,35.4818175
"F.T. Hiebert, P.L. Kohl",Sar Rustaq,"An ancient place, cited: BAtlas 99 D2 Sar Rustaq","Sar Rustaq, Diwar-i Kafir/Diwar-i Tang AFG",300,640,37.108064,69.934237
"H.S. Sivan, R.W. Mathisen",Mansle,"An ancient place, cited: BAtlas 14 F3 Mansle",Mansle,-30,640,45.867886882,0.176127267151
"Jr., F.H. Stanley, R.C. Knapp",Ebora,"A Roman city with likely Celtic roots and a long, subsequent architectural history, the historic center of modern Évora in Portugal was added to the UNESCO World Heritage List in 1986.",Évora POR,-30,2100,38.5717285,-7.9084865
R. Müller Wollermann,Magdola,"An ancient place, cited: BAtlas 75 D2 Magdola",Kom el-Nihas,-330,640,29.132354,30.588404
"M. Pearce, R. Peretto, P. Tozzi",Mons Silicis,"An ancient place, cited: BAtlas 40 B2 Mons Silicis",Monselice,-30,640,45.239638,11.750443
David Braund,Kainepolis,"Major city of Armenia. Inhabited since the Neolithic Period, the city was capital of the Arsacid Kingdom of Armenia from 120-330 CE, and became a major religious center with the construction of Etchmiadzin Cathedral in the early 4th century.",Echmiadzin/Valarshapat ARM,-330,2100,40.176099,44.292264
T. Drew Bear,Araukome,"An ancient place, cited: BAtlas 62 D3 Araukome",Eymir?,300,640,39.154577,30.040127
G. Wagner,Ain Borek,"An ancient place, cited: BAtlas 79 D4 Ain Borek",Ain Borek,-30,640,24.601213,30.771849
"L. Quilici, S. Quilici Gigli",Castrimoenium,A Latin settlement that became a Roman municipium.,Marino,-30,640,41.769809,12.658524
A. Bernand,Xois,"Ancient Xois was located on an island that was formed by the Sebennytic and Phatnitic branches of the Nile. It became the capital of its own nome, the Xoite nome.",Sakha,-30,640,31.108961,30.93728
"M. Šašel Kos, P. Kos",Scardona,"An ancient place, cited: BAtlas 20 C6 Scardona",Skradin CRO,-330,2100,43.817746,15.922959
"J. Fossey, J. Morin",Skarpheia,"An ancient place, cited: BAtlas 55 D3 Skarpheia",Molos?,-750,640,38.809093,22.66380685
T. Drew Bear,Babdalai,"An ancient place, cited: BAtlas 62 C4 Babdalai",Hacım,-30,640,38.543079,29.538588
D. Rupp,Makaria,"An ancient place, cited: BAtlas 72 D2 Makaria",Akanthou-Moules CYX,-750,640,35.3621995,33.6572345
"J. Kunow, C. Haselgrove",‘Pontes Caldis’,"An ancient place, cited: BAtlas 11 D2 ‘Pontes Caldis’",Escaupont,-30,640,50.421832,3.561866
A.S. Esmonde Cleary,Ischalis?,"Ischalis? is mentioned by Ptolemy, but its precise location remains debated. One possible location is the 'Charterhouse Roman town' site, while another is at Gatcombe, Somerset.",Charterhouse-on-Mendip,-30,2100,51.305512,-2.698015
"A. Hausleiter, M. Roaf, St J. Simpson, R. Wenke",Tell Abu Sarifa,"An ancient place, cited: BAtlas 93 B1 Tell Abu Sarifa","Tell Abu Sarifa, IRQ",-30,640,32.270349,45.19802
C. Foss,Kromna,"Kromna was a Milesian apoikía located on the Paphlagonian coast of the Black Sea, the modern Tekkeönü.",Tekeönü,-750,640,41.838242,32.651063
A.S. Esmonde Cleary,Bourne,"An ancient place, cited: BAtlas 8 G2 Bourne",Bourne,-30,640,52.768139,-0.377168
"S.E. Kroll, M. Roaf, St J. Simpson, T. Sinclair",Colchis,"An ancient place, cited: BAtlas 89 B2 Colchis",Yukarı Huh,-30,640,38.52585,39.228819
S.E. Kroll,Balanrot,"An ancient place, cited: BAtlas 90 D1 Balanrot",Pushkino? AZE,300,640,39.458333,48.545
"M. Šašel Kos, P. Kos",Argyruntum,"An ancient place, cited: BAtlas 20 C5 Argyruntum",Starigrad CRO,-330,640,44.295052,15.440271
"L. Quilici, S. Quilici Gigli",Tibur,"A Sabine town, 30 km east-north-east of Rome, Tibur was the seat of the Tiburtine Sibyl.",Tivoli,-750,2099,41.963602,12.79818
"H.S. Sivan, R.W. Mathisen",*Solonacum?,"An ancient place, cited: BAtlas 14 F1 *Solonacum?",Saunay,300,640,47.602336,0.971242
H. Bender,Turicum,"An ancient place, cited: BAtlas 19 A2 Turicum",Zürich SWI,-30,2100,47.371022,8.539374
"A. Hausleiter, M. Roaf, St J. Simpson, R. Wenke",KS954,"An ancient place, cited: BAtlas 93 E1 KS954",KS954,-30,640,32.191495,48.682422
"M. Roaf, St J. Simpson",Zindan/Dastagird?,"An ancient place, cited: BAtlas 91 F4 Zindan/Dastagird?",Zindan,300,640,33.897044,44.652757
"M. Roaf, T. Sinclair, S.E. Kroll, St J. Simpson",Singara,"An ancient place, cited: BAtlas 89 D4 Singara",Balad Sinjar IRQ,-6200,2000,36.321337,41.859566
"J.P. Brown, E.M. Meyers",Samoulis?,"An ancient place, cited: BAtlas 69 D3 Samoulis?",Simlin SYR,-30,640,33.039317,36.098538
"H.S. Sivan, S.J. Keay, R.W. Mathisen",Col. Narbo Martius,Col. Narbo Martius (modern Narbonne) was established in Gaul in 118 B.C. as a Roman colony.,Narbonne FRA,-750,2100,43.1836165,3.004203
R. Müller Wollermann,Palosis,"An ancient place, cited: BAtlas 75 D3 Palosis",Bilhasa,-30,640,28.675965,30.798219
"A. Hausleiter, M. Roaf, E.J. Keall",KS391,"An ancient place, cited: BAtlas 92 D4 KS391",KS391,300,640,32.347129,48.226407
A.S. Esmonde Cleary,Venta,"Venta was a Roman town in what is now Wales. Established ca. A.D. 75, Venta served as an administrative and mercantile center for the defeated Silures tribe.",Caerwent,-30,640,51.61112,-2.768044
"I.E.M. Edlund Berry, A.M. Small",Blera?,"An ancient place, cited: BAtlas 45 E3 Blera?",Iesce,-750,640,40.743803,16.64295
"J. Fossey, J. Morin",Physkeis,"An ancient place, cited: BAtlas 55 C4 Physkeis",Phournos Malandrino,-750,640,38.448897,22.246744
E.N. Borza,Aphrodisias/Col. Flaviopolis,"An ancient place, cited: BAtlas 51 H3 Aphrodisias/Col. Flaviopolis",Thracian Chersonese TKY,-330,640,40.538708,26.834645
S. Loseby,Ugernum,Ugernum was a waypoint on the Via Domitia located on the right bank of the Rhodanus fl.,Beaucaire,-750,2100,43.811154,4.635555
"J. Kunow, C. Haselgrove",Rouphiniana?,"An ancient place, cited: BAtlas 11 I3 Rouphiniana?",Eisenberg GER,-30,640,49.5550286,8.0783287
E. Bertrand,Vivarium,"An ancient place, cited: BAtlas 17 D5 Vivarium",Viviers,-30,640,44.4821575,4.6896365
"M. Roaf, T. Sinclair, S.E. Kroll, St J. Simpson",Mac(h)arta/Tiberioupolis/Monokarton,"An ancient place, cited: BAtlas 89 C3 Mac(h)arta/Tiberioupolis/Monokarton",Kızıltepe,300,640,37.1924595,40.587565
D.J. Mattingly,Tacape,Tacape (modern Gabès) was a commercial city located on the Lesser Syrtis.,Gabes TUN,-330,640,33.88643,10.109445
E. Bertrand,Lunna,"An ancient place, cited: BAtlas 17 D1 Lunna",near Belleville-sur-Saône,-30,640,46.094027,4.740069
E.N. Borza,Razlovci,"An ancient place, cited: BAtlas 50 C1 Razlovci","Razlovci, fortified settlement MAC",300,640,41.898625,22.759669
"P. Kos, M. Šašel Kos",Plana,"An ancient place, cited: BAtlas 20 F7 Plana",Plana near Bileća BOS,-30,640,42.966309,18.403282
"H.S. Sivan, S.J. Keay, R.W. Mathisen",Consoranni,"An ancient place, cited: BAtlas 25 G2 Consoranni",St-Lizier-en-Couserans FRA,-330,2100,43.00174,1.138354
S. Mitchell,Doara,"An ancient place, cited: BAtlas 63 E4 Doara",Duvarlı,300,640,38.2088935,34.424339
"C. Foss, S. Mitchell",Trebendai,"An ancient place, cited: BAtlas 65 C5 Trebendai",Gürses,-30,640,36.269278,29.930819
"C. Foss, S. Mitchell, G. Reger",Argiza,"An ancient place, cited: BAtlas 56 E2 Argiza",Pazarköy,-30,640,39.843503,27.409336
G.D. Woolf,Mathay,"An ancient place, cited: BAtlas 18 D2 Mathay",Mathay,-330,640,47.437005,6.786054
"C. Haselgrove, J. Kunow",Zähringer-Burgberg,"An ancient place, cited: BAtlas 11 H4 Zähringer-Burgberg","Zähringer-Burgberg, GER",300,640,48.023314,7.858793
"J. Keenan, S.E. Sidebotham, T. Wilfong",Contra Ombos,"An ancient place, cited: BAtlas 80 B5 Contra Ombos",Bimban,-30,640,24.314258,32.887541
"S.J. Keay, R.W. Mathisen, H.S. Sivan",Torre Gachero,"An ancient place, cited: BAtlas 25 F5 Torre Gachero","Torre Gachero, Valderrobres",-550,640,40.87548,0.155717
R. Müller Wollermann,Parembole,"An ancient place, cited: BAtlas 75 E2 Parembole",el-Burumbul,300,640,29.311376,31.238111
"E.J. Keall, M. Roaf",Qal'eh Tokhmaq,"An ancient place, cited: BAtlas 96 C2 Qal'eh Tokhmaq",Qal'eh Tokhmaq,-550,640,37.1314,54.2733
D.J. Mattingly,Saniat Gebril,"An ancient place, cited: BAtlas 36 C5 Saniat Gebril",Saniat Gebril,-30,640,26.641438,13.143928
"St J. Simpson, F. Hiebert, P.L. Kohl",Iasonion,"An ancient place, cited: BAtlas 98 C3 Iasonion",Yarim tepe? TKM,-30,640,35.911919,62.686893
"J. Keenan, S.E. Sidebotham, T. Wilfong",Kab Marfu'a,"An ancient place, cited: BAtlas 80 F4 Kab Marfu'a",Kab Marfu'a,-30,640,24.507867,34.759658
A. Bernand,Taposiris Megale,A Ptolemaic city and temple built by Ptolemy II between 280 and 270 BC.,Abu Sir,-30,2100,30.9461265,29.519114
R.J.A. Wilson,Entella,"Entella was an ancient city in the interior of Sicily, situated on the left bank of the river Hypsas.",Rocca d’Entella,-750,2100,37.7739772,13.1249825
S. Mitchell,Cybistra,"An ancient place, cited: BAtlas 66 E1 Cybistra",Ereğli,-1000,640,37.589731,34.1527925
E.N. Borza,Negrevo,"An ancient place, cited: BAtlas 50 C1 Negrevo","Negrevo, settlement and mines MAC",300,640,41.780501,22.86489
"H.S. Sivan, S.J. Keay, R.W. Mathisen",Flaviobriga,"An ancient place, cited: BAtlas 25 B2 Flaviobriga",Castro Urdiales,-330,640,43.382784,-3.219572
D.J. Mattingly,*Aves,"An ancient place, cited: BAtlas 35 B1 *Aves",ed Debdaba? el-Hamma? TUN,-30,640,33.883602,9.79452
"J.P. Brown, P.-L. Gatier",Arca/Herakleia en Phoinike/Caesarea ad Libanum,"An ancient place, cited: BAtlas 68 B4 Arca/Herakleia en Phoinike/Caesarea ad Libanum",Arqa LEB,-330,640,34.533092,36.0428025
E.N. Borza,Thasos (settlement),Greeks from Paros founded a colony on Thasos in the middle of the seventh century B.C.,Thasos,-750,640,40.78201,24.717535
R.B. Hitchner,Henchir-Sidi-Abd-el-Azziz,"An ancient place, cited: BAtlas 32 F4 Henchir-Sidi-Abd-el-Azziz",Henchir-Sidi-Abd-el-Azziz,-30,640,36.465074,10.048976
M. Roaf,Bam,"An ancient settlement in Iran, whose remains today are known as The Citadel of Bam (arg-e Bam). Located in the modern city of Bam, arg-e Bam was added to the UNESCO World Heritage List in 2004.",IRN,-1200,2000,29.1156331155,58.3691478143
S. Loseby,Agatha,"Agatha (modern Agde), also known as Agatha Tyche, was a colonial foundation of ca. 525 B.C. The colony was founded by Phocaean Greeks from Massilia.",Agde,-750,2100,43.305832,3.473132
"C. Foss, G. Reger, S. Mitchell",Plagia,"An ancient place, cited: BAtlas 56 C3 Plagia","Plagia, on Lesbos GRE",-330,640,39.001619,26.368424
M.U. Erdosy,Arachosiorum Oppidum/Alexandria,"An ancient place, cited: BAtlas 6 B3 Arachosiorum Oppidum/Alexandria",Kalat-e-Ghilzai? AFG,-1200,2000,33.498616,68.388483
D.J. Mattingly,Gasr Khuraybah,"An ancient place, cited: BAtlas 38 C1 Gasr Khuraybah",Gasr Khuraybah,-30,640,32.861157,21.915368
M. Drew Bear,Antinoopolis,"An ancient city in Egypt established by Hadrian in A.D. 122 in honor of Antinous. The city stood on the east bank of the Nile, opposite Hermopolis.",Sheik Ibada,-30,640,27.8105625,30.8810025
D. Rupp,Teratsia/Akhini,"An ancient place, cited: BAtlas 72 B3 Teratsia/Akhini","Akhini, Kouklia",-750,640,34.686781,32.583355
David Braund,Kotais,"An ancient place, cited: BAtlas 88 A2 Kotais",Kutaisi,-550,640,42.2636535,42.705819
T. Drew Bear,Mossyna,"An ancient place, cited: BAtlas 62 B5 Mossyna",.6 mile NE Sazak,-30,640,38.095586,29.298552
"P. Kos, M. Šašel Kos",Bassiana,"An ancient place, cited: BAtlas 20 D2 Bassiana",Sárvár HUN,-30,640,47.254062,16.935227
"J.P. Brown, E.M. Meyers",Asicha,"An ancient place, cited: BAtlas 69 D3 Asicha",Umm el-'Osij SYR,-30,640,33.061161,36.075679
"St J. Simpson, F. Hiebert, P.L. Kohl",Durnali,"An ancient place, cited: BAtlas 98 C1 Durnali","Durnali, TKM",-30,640,37.847176,62.125393
"L. Quilici, S. Quilici Gigli",Varia,Varia (modern Vicovaro) was a settlement of the Sabines.,Vicovaro,-330,640,42.018193,12.896194
R.B. Hitchner,Tunes,Tunes was a Libyan city in Africa Proconsularis. Rome prevailed in a land battle south of Tunes in 256 BC during the First Punic War.,Tunis,-330,640,36.79923,10.171649
"J.P. Brown, P.-L. Gatier",Zebed,"An ancient place, cited: BAtlas 68 E2 Zebed",Zebed,300,640,35.85723,37.732749
"L. Quilici, S. Quilici Gigli",Ficulea,Ficulea was an ancient city of Latium situated between Rome and Nomentum.,Marco Simone vecchio,-750,640,41.996708,12.619129
W.V. Harris,Numana,Numana was a settlement of ancient Picenum located south of Ancona.,Numana,-750,640,43.511271,13.62142
"Jr., F.H. Stanley, R.C. Knapp",Ulia (Fidentia),"An ancient place, cited: BAtlas 26 F4 Ulia (Fidentia)",Montemayor,-330,640,37.648657,-4.698889
"J.P. Brown, E.M. Meyers",Qazrin,"An ancient place, cited: BAtlas 69 C4 Qazrin","Qazrin, SYR",-30,640,32.991709,35.689426
D.J. Mattingly,Apis,"An ancient place, cited: None",Zawiet Umm el-Rakham,-750,640,31.398216,27.042137
"M. Roaf, E.J. Keall",[Jurjan]/G(o)urgan?,"An ancient place, cited: BAtlas 96 D2 [Jurjan]/G(o)urgan?",Barrington Atlas grid 96 D2,-30,640,37.232558,55.1454375
"H.S. Sivan, R.W. Mathisen",Vieux-Poitiers,A Gallo-Roman settlement founded on a Celtic oppidum,"Vieux-Poitiers, Cm. Naintré",-330,2100,46.761759,0.512508
"M. Šašel Kos, P. Kos",Aenona,"An ancient place, cited: BAtlas 20 C5 Aenona",Nin CRO,-330,640,44.2435845,15.1847195
David Braund,Monastiri,"An ancient place, cited: BAtlas 88 B2 Monastiri",Monastiri,-30,640,42.375752,43.894928
S. Mitchell,Korama,"A settlement in Cappadocia located among ""fairy chimney"" rock formations.",Göreme,300,640,38.6552105,34.753616
R.B. Hitchner,Tac(...),"An ancient place, cited: BAtlas 32 D4 Tac(...)",SE Musti,-30,640,36.33085,9.175157
S.T. Parker,Areopolis,"An ancient place, cited: BAtlas 71 B3 Areopolis",er-Rabba,-330,640,31.272021,35.736
"M. Roaf, T. Sinclair, S.E. Kroll, St J. Simpson",Tell Hassake,"An ancient place, cited: BAtlas 89 C4 Tell Hassake","Tell Hassake, SYR",-750,640,36.53344,40.7352
R.B. Hitchner,Novae Aquilianae?,"An ancient place, cited: BAtlas 32 D3 Novae Aquilianae?",Sidi-Ali-Djebini,-30,640,36.640531,9.024258
S.T. Parker,Valtha,"An ancient place, cited: BAtlas 71 B2 Valtha",Khirbet Tahunet el-Wala,-30,640,31.554249,35.772658
"A. Hausleiter, M. Roaf, R. Wenke",Yazd-i Khast,"An ancient place, cited: BAtlas 94 C2 Yazd-i Khast",Yazd-i Khast,-30,640,31.510974,52.124596
R.J.A. Wilson,Campanaio di Montallegro,"Campanaio di Montallegro was located in the territory of Heraclea Minoa, some 25 km west of Agrigento.","Campanaio di Montallegro, agricultural village",-330,640,37.392609,13.347505
S. Mitchell,Garsaura/Col. Claudia Archelais/Koloneia,"Originally known as Garsaura, this place was a key settlement of the strategia of Garsaouritis. King Archelaus refounded it and named it after himself. Under the Roman emperor Claudius the site received colonial status. The settlement is located at an oasis to the southeast of Tuz Gölü and some 225 km south of Ancyra.",Aksaray,-330,2100,38.378381,34.033375
C. Foss,Dr(o)usipara,"An ancient place, cited: BAtlas 52 B2 Dr(o)usipara",near Karıştıran,-30,640,41.300089,27.543955
"M. Roaf, E.J. Keall",[Semnan]/Semina,"An ancient place, cited: BAtlas 96 B4 [Semnan]/Semina",Barrington Atlas grid 96 B4,-1200,2000,35.572351,53.396022
A. Bernand,Kabasa,"An ancient place, cited: BAtlas 74 D2 Kabasa",Shabas el-Shuhada?,-330,640,31.090569,30.74459
D.J. Mattingly,Aptouchou Hieron?,"An ancient place, cited: BAtlas 38 C1 Aptouchou Hieron?",Haniya,-330,640,32.841829,21.520631
"J. Fossey, J. Morin",Mykalessos,"An ancient place, cited: BAtlas 55 F4 Mykalessos",Rhitsona,-750,640,38.41672,23.519602
"A. Hausleiter, M. Roaf, St J. Simpson, R. Wenke",KS907,"An ancient place, cited: BAtlas 93 E1 KS907",KS907,-30,640,32.113283,48.616156
R.B. Hitchner,Ain-es-Sif,"An ancient place, cited: BAtlas 33 E1 Ain-es-Sif",Ain-es-Sif,-30,640,36.017362,9.877074
E. Bertrand,Mont-Musiège,"An ancient place, cited: BAtlas 17 F1 Mont-Musiège",Mont-Musiège,-30,640,46.017538,5.965782
"S.E. Kroll, M. Roaf, St J. Simpson, T. Sinclair",Tell Sahlan/[Sahlala]/Commisimbela?,"An ancient place, cited: BAtlas 89 A4 Tell Sahlan/[Sahlala]/Commisimbela?","Tell Sahlan, SYR",-750,640,36.63193,38.951588
jahlfeldt,Gallo-Roman vicus at Dalheim,Remains of the Roman-era settlement at Dalheim.,NA,-30,640,49.5382311,6.2559389
T.B. Mitford,Ablastha,"An ancient place, cited: BAtlas 64 E4 Ablastha",Elbistan,-30,640,38.201601,37.190334
E.N. Borza,Ag. Pneuma,"An ancient place, cited: BAtlas 51 B2 Ag. Pneuma","Ag. Pneuma, fortified settlement and quarry",-30,640,41.058728,23.705937
"C. Foss, S. Mitchell",*Komba,"An ancient place, cited: BAtlas 65 C4 *Komba",Gömbe,-30,640,36.551265,29.669357
"I.E.M. Edlund Berry, A.M. Small",Diria?,"An ancient place, cited: BAtlas 45 F3 Diria?",Monopoli,-30,640,40.95483995,17.2949039
H. Bender,Ramsau,"An ancient place, cited: BAtlas 19 F2 Ramsau","Ramsau, Knallwand",300,640,47.420146,13.667638
"R.W. Mathisen, H.S. Sivan",Unnamed settlement,"An unnamed ancient settlement, located near modern Baugy in France (BAtlas 14 H1 Baugy)",Baugy,-30,640,47.082276,2.747005
"C. Foss, S. Mitchell",Korydalla,"An ancient place, cited: BAtlas 65 D5 Korydalla",Haciveliler,-550,640,36.376674,30.273281
"R.W. Mathisen, H.S. Sivan",*Prisciniacum,"An ancient place, cited: BAtlas 14 F2 *Prisciniacum",Le-Petit-Pressigny?,300,640,46.922789,0.919404
"P.-L. Gatier, T. Sinclair",(H)Alai,"An ancient place, cited: BAtlas 67 B3 (H)Alai","Alakese, formerly Alakilise",-30,640,36.816841,35.873832
"J.P. Brown, E.M. Meyers",Mardocha,"An ancient place, cited: BAtlas 69 E4 Mardocha",Murduk SYR,-30,640,32.827688,36.59775
C. Foss,Amastris/Sesamos,"An ancient settlement on the Black Sea coast in Asia Minor, modern Amasra in Turkey.",Amasra,-750,640,41.746969,32.385648
S.E. Kroll,Laclac Gaisi,"An ancient place, cited: BAtlas 90 B4 Laclac Gaisi","Laclac Gaisi, near Hoseyn Mame",300,640,36.740595,46.114411
E.W.B. Fentress,Chéria,"An ancient place, cited: BAtlas 34 F2 Chéria",Chéria,-30,640,35.269484,7.747645
"I.E.M. Edlund Berry, A.M. Small",Acerina,"An ancient place, cited: BAtlas 45 C2 Acerina",La Cerina,-330,640,41.396699,15.958032
R. Müller Wollermann,Paeimis,"An ancient place, cited: BAtlas 75 D3 Paeimis",Bani wal-Lams?,-330,640,28.595648,30.691337
"M. Šašel Kos, P. Kos",Salona,A coastal city of Dalmatia.,Solin CRO,-330,2100,43.539561,16.483426
"J.P. Brown, P.-L. Gatier",el-Bara,"An ancient place, cited: BAtlas 68 C2 el-Bara",el-Bara,300,640,35.697826,36.558987
"E.M. Meyers, J.P. Brown",Ioqereth,"An ancient place, cited: BAtlas 69 B3 Ioqereth",Iqrit ISR,-30,640,33.074633,35.273812
"G. Reger, J. McK. Camp II",Melos (settlement),"An ancient place, cited: BAtlas 58 G4 Melos",Klima,-750,640,36.743864,24.423276
E.N. Borza,Gospodinci,"An ancient place, cited: BAtlas 51 B1 Gospodinci","Gospodinci, BUL",-30,640,41.650776,23.725966
"M. Roaf, E.J. Keall",Tusa/Sousia,"An ancient place, cited: BAtlas 97 E3 Tusa/Sousia",Tus,-550,640,36.464709,59.540463
"H.S. Sivan, R.W. Mathisen",*Andecamulum,"An ancient place, cited: BAtlas 14 G2 *Andecamulum",Rancon,-30,640,46.132338,1.181277
D.J. Mattingly,Douz,"An ancient place, cited: BAtlas 35 B1 Douz","Douz, TUN",-30,640,33.456736,9.028243
"J. Fossey, J. Morin",Thesteia,"An ancient place, cited: BAtlas 55 A3 Thesteia",Ano Vlokhos,-750,640,38.64771,21.490573
R.B. Hitchner,*Thunigaba,"An ancient place, cited: BAtlas 32 D3 *Thunigaba",Ain-Maabed,-30,640,36.873168,9.2126795
"H.S. Sivan, S.J. Keay, R.W. Mathisen",Termes,"An ancient place, cited: BAtlas 25 B4 Termes",Tiermes (Montejo de Tiermes),-330,640,41.3304855,-3.148381
"C. Foss, S. Mitchell",Idebessos,Idebessos was an ancient city of Lycia.,Kozağacı,-30,640,36.554976,30.202995
T. Drew Bear,*Seilinda,"An ancient place, cited: BAtlas 62 G5 *Seilinda","Uncular, formerly Silint",-30,640,38.20584,31.598807
"C. Foss, G. Reger",P(h)ygela,"An ancient place, cited: BAtlas 61 E2 P(h)ygela",Kuşadası,-550,640,37.862209,27.263729
"C. Foss, S. Mitchell",Pogla,"An ancient place, cited: BAtlas 65 D3 Pogla",Çomaklı (Fuğla),-330,640,37.301977,30.2599525
T.B. Mitford,Gauraina,"An ancient place, cited: BAtlas 64 E3 Gauraina",Gürün,-1000,640,38.722928,37.25749
M.U. Erdosy,Patala/Minnagar,"An ancient place, cited: BAtlas 6 B4 Patala/Minnagar",Bahmanabad? PAK (contra Eggermont),-330,640,24.72237,68.065079
"H.S. Sivan, R.W. Mathisen",*Ambiacum,"An ancient place, cited: BAtlas 14 F1 *Ambiacum",Amboise,-750,640,47.411799,0.987224
R.B. Hitchner,H-17-I,"An ancient place, cited: BAtlas 32 F4 H-17-I",H-17-I,-30,640,36.396613,10.349731
D.J. Mattingly,Waddan,"An ancient place, cited: BAtlas 36 F2 Waddan",Waddan,-30,640,29.147734,16.195787
"H.S. Sivan, R.W. Mathisen",Santonon Limen,"An ancient place, cited: BAtlas 14 D2 Santonon Limen",Barrington Atlas grid 14 D2,-30,640,46.021662,-1.064762
R.B. Hitchner,Nara?,"An ancient place, cited: BAtlas 33 D2 Nara?",Bir-el-Bey,-30,640,35.089578,9.328907
H. Bender,Vervassium,"An ancient place, cited: BAtlas 19 D3 Vervassium",Vervò? ITL,-30,640,46.311065,11.119064
E. Bertrand,Akousion/Acunum,"An ancient place, cited: BAtlas 17 D4 Akousion/Acunum",Montélimar,-30,640,44.558333,4.750905
"M. Roaf, St J. Simpson",Lashom,"An ancient place, cited: BAtlas 91 F2 Lashom",about 7.5 miles SW Ta'uk,300,640,35.05958,44.351671
R.B. Hitchner,Uzalis,"An ancient place, cited: BAtlas 32 F2 Uzalis",el-Alia,-330,640,37.169048,10.033986
W.V. Harris,Isola del Migliarino,"An ancient place, cited: BAtlas 41 C2 Isola del Migliarino",Isola del Migliarino,-750,640,43.746445,10.315758
R. Müller Wollermann,Kynopolis/Sko/Euergetis,"An ancient place, cited: BAtlas 75 D4 Kynopolis/Sko/Euergetis",el-Qeis,-330,640,28.479495,30.782897
H. Bender,Pagus Laebactium?,"An ancient place, cited: BAtlas 19 E3 Pagus Laebactium?",Castelvazzo ITL,-30,640,46.285961,12.30816
"J. Kunow, C. Haselgrove",Givry,"An ancient place, cited: BAtlas 11 E2 Givry","Givry, BGM",-30,2100,50.379106,4.028436
"T. Sinclair, P.-L. Gatier",Pagrae,"An ancient place, cited: BAtlas 67 C4 Pagrae",Bağras,-330,640,36.426652,36.224864
N. Purcell,Casinum,A Volscian hilltop settlement that became a Roman colony in 312 B.C.,Cassino,-330,2100,41.492907,13.830583
D.J. Mattingly,Paraetonium/Ammonia,The westernmost town of ancient Egypt.,Marsa Matruh,-750,640,31.350136,27.2368445
E.W. Haley,Salmantica,"Salmantica (modern Salamanca) was an indigenous Celtic center before falling to the Carthaginians and, later, the Romans.",Salmantica,-750,2100,40.964964,-5.663086
"M. Šašel Kos, P. Kos",Neviodunum,"An ancient place, cited: BAtlas 20 C4 Neviodunum",Drnovo pri Krškem SVN,-30,640,45.917552,15.4863805
"J.P. Brown, P.-L. Gatier",Raphaneai,"An ancient place, cited: BAtlas 68 B4 Raphaneai",Rafniye,-30,640,34.966351,36.39298
"M. Pearce, P. Tozzi",Plumbia,"An ancient place, cited: BAtlas 39 D2 Plumbia",Pombia,-30,640,45.652008,8.633496
"M. Roaf, T. Sinclair, S.E. Kroll, St J. Simpson",Satalka/Thamanon,"An ancient place, cited: BAtlas 89 E3 Satalka/Thamanon","Çağlayan, formerly Şah",-330,640,37.417929,42.343846
H. Bender,Bludenz,"An ancient place, cited: BAtlas 19 B2 Bludenz",Bludenz,-330,640,47.155552,9.82071
E.N. Borza,*Porsulae/Maximianopolis,"*Porsulae/Maximianopolis, also known as Mosynopolis, was a Byzantine town along the Via Egnatia in Thrace; its position is close to the modern Greek city of Komotini.",3 miles W Komotine,-30,640,41.132896,25.3293005
"M. Šašel Kos, P. Kos",Stiriate,"An ancient place, cited: BAtlas 20 B2 Stiriate",Liezen AUS,-30,640,47.568826,14.243126
"J. Kunow, C. Haselgrove",Pont-sur-Yonne,"An ancient place, cited: BAtlas 11 D4 Pont-sur-Yonne","Pont-sur-Yonne, ironworking",-30,640,48.287388,3.203468
"P.-L. Gatier, T. Sinclair",Eirenopolis/Neronias,"An ancient place, cited: BAtlas 67 C2 Eirenopolis/Neronias","Düziçi, formerly Haruniye",-30,640,37.2513675,36.4669675
"J.P. Brown, P.-L. Gatier",Posideion,"An ancient place, cited: BAtlas 68 A2 Posideion",Ras el-Bassit,-750,640,35.847777,35.824785
E.N. Borza,Zone,"An ancient place, cited: BAtlas 51 F3 Zone",Makri?,-750,640,40.848568,25.755818
A.S. Esmonde Cleary,Braintree,"An ancient place, cited: BAtlas 8 H3 Braintree",Braintree,-30,640,51.880743,0.557215
S. Mitchell,Kyzistra,"An ancient place, cited: BAtlas 63 G4 Kyzistra",Zengibar Kalesi,-30,640,38.3508285,34.9572705
R.B. Hitchner,Agger,"An ancient place, cited: BAtlas 33 E1 Agger",Henchir-Sidi-Amara or Henchir-el-Khima,-330,640,35.8626025,9.5156285
S. Mitchell,Aquae Saravenae,"An ancient place, cited: BAtlas 63 E2 Aquae Saravenae",Kırşehir,300,640,39.146182,34.160473
M.U. Erdosy,Magaris,"An ancient place, cited: BAtlas 5 F2 Magaris",Nagari?,-30,640,20.378459,85.994719
R. Müller Wollermann,Taampemou,"An ancient place, cited: BAtlas 75 D3 Taampemou",Tanbu,-30,2100,28.500926,30.772361
S. Mitchell,Tyana/Col. Aurelia Antoniniana,An ancient city of Cappadocia that was the capital of the Neo-Hittite kingdom in the first millennium B.C.,Kemerhisar,-1450,2000,37.82365,34.572513
"J. Fossey, J. Morin",Gomphoi,"An ancient place, cited: BAtlas 55 B2 Gomphoi",Mouzaki,-550,640,39.436045,21.676806
"R.C. Knapp, F.H. Stanley, Jr.",Erisane/Arsa,"An ancient place, cited: BAtlas 26 E5 Erisane/Arsa",near Asido,-330,640,36.512531,-5.913705
R.B. Hitchner,Gillium,"An ancient place, cited: BAtlas 32 D4 Gillium",Henchir-el-Frass,-30,640,36.477401,9.038332
W.M. Murray,Ithaca,"An ancient place, cited: BAtlas 54 C5 Ithaca",Polis,-750,640,38.44193,20.638399
W.V. Harris,Tarchna/Tarquinii,"An ancient city of Etruria and the leading city of the doudecim populi Etruriae, Tarquinia (called Tarch(u)na or Tarchna in Etruscan) was a major urban center of ancient Italy.",near Tarquinia,-750,2100,42.2545322,11.7581734667
W.V. Harris,Musarna,"Musarna is an ancient Etruscan settlement discovered in 1849 just west of Viterbo, Italy. The École française de Rome has been conducting excavations at the site since 1983.",Musarna,-750,640,42.4122179,11.9765756
David Braund,Vysochino,"An ancient place, cited: BAtlas 84 E1 Vysochino","Vysochino, R. Don estuary",-30,640,47.113221,39.335613
R.B. Hitchner,Tegla,"An ancient place, cited: BAtlas 32 G3 Tegla",Barrington Atlas grid 32 G3,-30,640,36.959233,10.847646
P.O. Spann,Isturgi,"An ancient place, cited: BAtlas 27 A3 Isturgi",Los Villares de Andújar,-30,640,38.026896,-3.983804
D.J. Mattingly,el-Gara,"An ancient place, cited: None","el-Gara, LBY",-30,640,31.99479,24.203815
"R.W. Mathisen, H.S. Sivan",*Ferruciacum,"An ancient place, cited: BAtlas 14 G2 *Ferruciacum",St-Etienne-de-Fursac?,300,640,46.144589,1.514749
"J. Kunow, C. Haselgrove",Noviomagus/Nemetae,"An ancient place, cited: BAtlas 11 I3 Noviomagus/Nemetae",Speyer GER,-30,640,49.3172545,8.436718
D.J. Mattingly,Saniat Suleiman Craida,"An ancient place, cited: BAtlas 36 C5 Saniat Suleiman Craida",Saniat Suleiman Craida,-30,640,26.62971,13.158523
gmckee,Jrvezh,"Village east of Yerevan in Armenia. The town, which has been settled since at least the 5th century CE, contains a 7th-century chapel.",NA,300,2100,40.1882940589,44.634843023
H. Bender,Cesio Maggiore,"An ancient place, cited: BAtlas 19 D3 Cesio Maggiore","Cesio Maggiore, ITL",-30,640,46.089028,11.987496
R. Müller Wollermann,Sele,"An ancient place, cited: BAtlas 75 D2 Sele",Seila,300,640,29.353759,30.969816
"A. Bursche, L.F. Pitts",Zagórzyn,"An ancient place, cited: BAtlas 13 D1 Zagórzyn","Zagórzyn, POL",300,640,51.813991,18.036438
H. Bender,Hallein,"An ancient place, cited: BAtlas 19 F2 Hallein",Hallein,300,640,47.682742,13.095945
"T. Sinclair, P.-L. Gatier",Tourmanin,"An ancient place, cited: BAtlas 67 D4 Tourmanin","Tourmanin, SYR",-30,640,36.234471,36.816034
E.W.B. Fentress,Vicus Augusti/*Castellum Medianum Matidium Alexandrianum Tilirvense?,"An ancient place, cited: BAtlas 31 C4 Vicus Augusti/*Castellum Medianum Matidium Alexandrianum Tilirvense?",Bir bou Saadia,-30,640,36.07575,5.195747
E.W.B. Fentress,Lesbi?,"An ancient place, cited: BAtlas 31 C4 Lesbi?",Tirermine Oulemouta,-30,640,36.457201,5.129934
J.S. Traill,Aigina (settlement),The primary ancient settlement on the Aegean island of the same name.,Aigina,-750,640,37.750149,23.423668
"R.W. Mathisen, H.S. Sivan",*Mantoloma(g)um,"An ancient place, cited: BAtlas 14 F1 *Mantoloma(g)um",Manthelan?,300,640,47.151723,0.759505
A.S. Esmonde Cleary,Rocester,"An ancient place, cited: BAtlas 8 F2 Rocester",Rocester,300,640,52.951012,-1.83597
S. Mitchell,Bulduk,"An ancient place, cited: BAtlas 63 B3 Bulduk","Bulduk, village site",-30,640,38.953918,32.755936
G.D. Woolf,Andematunnum,A Gallo-Roman city and capital of the Lingones,Langres,-30,2100,47.864221,5.335214
"S.J. Keay, R.W. Mathisen, H.S. Sivan",Àger,"An ancient place, cited: BAtlas 25 F3 Àger",Àger,300,640,42.002792,0.764373
A.G. Poulter,Marcianopolis,"An ancient place, cited: BAtlas 22 E5 Marcianopolis",Reka Devniya BUL,-30,640,43.22504,27.585033
E. Bertrand,Axima/Forum Claudii Ceutronum,"An ancient place, cited: BAtlas 17 H2 Axima/Forum Claudii Ceutronum",Aime,-330,2100,45.556944,6.653224
"M. Roaf, T. Sinclair, S.E. Kroll, St J. Simpson",Catispi/Hatsiun,"An ancient place, cited: BAtlas 89 G1 Catispi/Hatsiun",Hatsiun IRN,300,640,39.360208,44.665987
"J. Fossey, J. Morin",Ambrossos,An ancient Greek settlement in Phocis. Modern Distomo.,Distomon,-750,2100,38.4291946,22.6672151
"I.E.M. Edlund Berry, A.M. Small",Argos Hippium/Arpi/Argyripa,"An ancient place, cited: BAtlas 45 C1 Argos Hippium/Arpi/Argyripa",near Arpinova,-750,2100,41.475654,15.555444
J.J. Wilkes,Veliko Orašje,"An ancient place, cited: BAtlas 21 D5 Veliko Orašje","Veliko Orašje, YUG",-30,640,44.379929,21.096381
R.B. Hitchner,Henchir-Ain-Zeress,"An ancient place, cited: BAtlas 32 E4 Henchir-Ain-Zeress",Henchir-Ain-Zeress,-30,640,36.169565,9.922224
"J. Fossey, J. Morin",Trikka,"An ancient place, cited: BAtlas 55 B1 Trikka",Trikkala/Ag. Nikolaos,-750,640,39.568904,21.782998
"E.M. Meyers, J.P. Brown",Apheka,"An ancient place, cited: BAtlas 69 C4 Apheka",Afiq SYR,-30,640,32.779913,35.700705
E.N. Borza,Fotinovo,"An ancient place, cited: BAtlas 51 E2 Fotinovo","Fotinovo, BUL",-30,640,41.3348,25.348341
"S.J. Keay, R.W. Mathisen, H.S. Sivan",*Sparianum,"An ancient place, cited: BAtlas 25 F2 *Sparianum",Bordères-Louron FRA,-30,640,42.871883,0.394866
W.V. Harris,Urvinum Mataurense,Urvinum Mataurense (modern Urbino).,Urbino,-330,640,43.724733,12.636675
P.O. Spann,Campillo Bajo,"An ancient place, cited: BAtlas 27 A4 Campillo Bajo","Campillo Bajo, 3 miles W Villafranca de Córdoba",-330,640,37.981214,-4.647686
"J. Kunow, C. Haselgrove",Dumnissus,"An ancient place, cited: BAtlas 11 H3 Dumnissus",Kirchberg-Denzen GER,-30,640,49.9463425,7.41176245
M.U. Erdosy,Pidarikulam,"An ancient place, cited: BAtlas 5 inset Pidarikulam","Pidarikulam, SRI",300,640,8.832238,80.014065
"T. Sinclair, David Braund",Hermonassa,"An ancient place, cited: BAtlas 87 E3 Hermonassa",Akçaabat,-550,640,41.034159,39.553424
E.W. Haley,*Lamecum,"An ancient place, cited: BAtlas 24 D3 *Lamecum",Lamego? POR,-30,640,41.098735,-7.810936
T. Drew Bear,Seyrecek,"An ancient place, cited: BAtlas 62 E3 Seyrecek",Seyrecek,300,640,39.182796,30.570096
"T. Wilfong, S.E. Sidebotham, J. Keenan",Phnoum,"An ancient place, cited: BAtlas 80 B3 Phnoum",Barrington Atlas grid 80 B3,300,640,25.243011,32.510005
"I.E.M. Edlund Berry, A.M. Small",Teanum Apulum,"A town in ancient Apulia located between Larinum and and Sipontum. Rome took control of the site in 318 BC, granting it municipal status.",near S. Paolo di Civitate,-330,640,41.739367,15.261276
S. Mitchell,Mallos/Antiochia ad Pyramum,Mallos/Antiochia ad Pyramum was an ancient coastal city of Cilicia.,near Kızıltâhta,-330,640,36.756188,35.4852
"M. Roaf, St J. Simpson",Abu Taraichiya al-Shemali,"An ancient place, cited: BAtlas 91 F4 Abu Taraichiya al-Shemali",Abu Taraichiya al-Shemali,-550,640,33.200655,45.010855
A.S. Esmonde Cleary,Icklingham,Site of a possible Roman Small Town.,Icklingham,-30,640,52.3163198,0.6155342
"C. Haselgrove, J. Kunow",Theux,"An ancient place, cited: BAtlas 11 F2 Theux","Theux, BGM",-30,640,50.534962,5.812773
S.T. Parker,Adara,"An ancient place, cited: BAtlas 71 B3 Adara",Adir,-30,640,31.205721,35.761209
"M. Pearce, P. Tozzi",*Minervium,"An ancient place, cited: BAtlas 39 G3 *Minervium",Manerbio,-30,640,45.355168,10.141892
R.B. Hitchner,Vaga,"Vaga (Béja, Tunisia) was a much-contested city in antiquity. During the conflict against Rome, Iugurtha made Vaga his base of operations.",Beja,-330,640,36.726581,9.184162
T. Drew Bear,Klaneos?,"An ancient place, cited: BAtlas 62 G4 Klaneos?",Turgut,-30,640,38.623418,31.834923
"I.E.M. Edlund Berry, A.M. Small",S. Teodoro,"An ancient place, cited: BAtlas 46 C4 S. Teodoro",S. Teodoro,-30,640,38.523334,15.933816
P.O. Spann,Carac(c)a,"An ancient place, cited: BAtlas 27 B1 Carac(c)a",Carabaña?,-330,2100,40.1997912,-3.0344201
"R.C. Knapp, F.H. Stanley, Jr.",Marinaleda,"An ancient place, cited: BAtlas 26 F4 Marinaleda",Marinaleda,-30,640,37.374738,-4.953785
"M. Roaf, St J. Simpson",Dura,A place on the Tigris River mentioned by Ammianus Marcellinus.,al-Dawr?,-330,640,34.459007,43.795251
"R.W. Mathisen, H.S. Sivan",Becciacum,"An ancient place, cited: BAtlas 14 D2 Becciacum",Bessay?,300,640,46.536935,-1.152853
"J. Bennet, G. Reger",Tarra,"An ancient place, cited: BAtlas 60 A2 Tarra",Ag. Roumeli,-750,640,35.236215,23.970017
W.V. Harris,Pitinum,An ancient center of the Vestini.,near Madonna di Pettino,-30,640,42.348273,13.377905
H. Bender,Aquileia,"An ancient place, cited: BAtlas 12 D4 Aquileia",Heidenheim,-30,640,48.678383,10.151322
"I.E.M. Edlund Berry, A.M. Small",Mesagne,A center of the Messapii in Apulia.,Mesagne,-750,640,40.559856,17.807727
"Jr., F.H. Stanley, R.C. Knapp",Caetobriga,"An ancient place, cited: BAtlas 26 B3 Caetobriga",Setúbal POR,-750,640,38.524512,-8.893066
T. Drew Bear,Lagania/Anastasioupolis,"An ancient place, cited: BAtlas 62 H2 Lagania/Anastasioupolis",Dikmen Hüyük,-30,640,40.0219715,31.9622515
S. Loseby,St-Michel,"An ancient place, cited: BAtlas 15 B2 St-Michel","St-Michel, Montpellier",-30,640,43.608187,3.879533
E.N. Borza,Drabeskos,"An ancient place, cited: BAtlas 51 B3 Drabeskos",Draveskos?,-330,640,40.913254,23.8636185
S.L. Dyson,Castelsardo,"An ancient place, cited: BAtlas 48 A2 Castelsardo",Castelsardo,-30,640,40.912809,8.713337
"M. Šašel Kos, P. Kos",Ruginium,"An ancient place, cited: BAtlas 20 A4 Ruginium",Rovinj CRO,-30,640,45.081788,13.635286
"J. Fossey, J. Morin",Klavsion,"An ancient place, cited: BAtlas 55 B3 Klavsion",Klavsion,-330,640,38.864373,21.770772
R. Müller Wollermann,Psychis,"An ancient place, cited: BAtlas 75 D3 Psychis",Absug,-330,2100,28.852632,30.889635
"T. Sinclair, David Braund",Virasia,"An ancient place, cited: BAtlas 87 A4 Virasia","Doğantepe, formerly Zara?",300,640,40.615458,35.578596
"J. Fossey, J. Morin",Echinos,Echinos was a town located on the northern shore of the Gulf of Malia near the modern village of Achino.,Akhinos,-550,640,38.893412,22.723917
"J. Bennet, G. Reger",Rhaukos,"An ancient place, cited: BAtlas 60 D2 Rhaukos",Ag. Myron,-330,640,35.228138,25.024828
R.J.A. Wilson,Centuripae,"A city of the indigenous Sikels, Centuripae allied itself with Athens during the expedition against Syracuse.",Centuripe,-550,2100,37.624073,14.740017
"C. Haselgrove, J. Kunow",Tholey-Vareswald,"An ancient place, cited: BAtlas 11 H3 Tholey-Vareswald","Tholey-Vareswald, GER",-30,640,49.4949175,7.059854
R. Müller Wollermann,Takona,"An ancient place, cited: BAtlas 75 D3 Takona",el-Kom el-Ahmar/Mazura,-330,640,28.033111,30.833315
P.O. Spann,Ossigi,"An ancient place, cited: BAtlas 27 B4 Ossigi","Cerro Alcal, 6 miles NE Mancha Real",-30,640,37.848915,-3.560303
"C. Foss, G. Reger",Heraclea ad Latmum/Pleistarcheia,"A town of Caria located 25 km west of Miletos on the Ionian coast, Heraclea was located on the lower slopes of Mt. Latmos. Once a part of the Delian League, the city fell to Mausolos in the fourth century B.C. and his philhellene policy accounts for its change of name.",Kapıkırı,-550,640,37.501842,27.525011
"J.P. Brown, E.M. Meyers",Aere,"An ancient place, cited: BAtlas 69 D3 Aere",Sanamein SYR,-30,640,33.071101,36.185274
"J.P. Brown, P.-L. Gatier",Trieres,"An ancient place, cited: BAtlas 68 A5 Trieres",el Heri LEB,-330,640,34.304024,35.714518
A. Bernand,Pharbaithos,"An ancient place, cited: BAtlas 74 F3 Pharbaithos",Horbeit,-750,640,30.734257,31.620556
"C. Foss, S. Mitchell",Sia,"An ancient place, cited: BAtlas 65 E3 Sia",Karaot,-330,640,37.2631893333,30.58866
"C. Foss, S. Mitchell",Kotenna,"An ancient place, cited: BAtlas 65 G3 Kotenna",Gödene,-30,640,37.024169,31.647894
H. Bender,*Bedaium,"An ancient place, cited: BAtlas 19 E2 *Bedaium",Seebruck GER,-30,640,47.934824,12.477721
A.G. Poulter,Bessapara,"An ancient place, cited: BAtlas 22 B6 Bessapara",near Pazardjik BUL,-30,640,42.101814,24.436297
S.M. Burstein,Aniba,"An ancient place, cited: BAtlas 81 C3 Aniba","Aniba, Eg.: Mi'am (2 millennium)",-330,640,22.668264,32.017034
"S.J. Keay, R.W. Mathisen, H.S. Sivan",Cerro del Castellar,"An ancient place, cited: BAtlas 25 C4 Cerro del Castellar","Cerro del Castellar, San Felices",-550,640,41.937019,-2.027105
"T. Sinclair, P.-L. Gatier",*Kirkota,"An ancient place, cited: BAtlas 67 B3 *Kirkota",Kızıldere,300,640,36.945008,35.68204
S.T. Parker,Characmoba,"An ancient place, cited: BAtlas 71 B3 Characmoba",Kerak,-3300,2000,31.1831575,35.703277
D.T. Potts,Adane/Athenae/Eudaimon Arabia,"An ancient place, cited: BAtlas 4 C3 Adane/Athenae/Eudaimon Arabia",Aden YEM,-1200,2000,12.771651,45.038928
T.W. Potter,Lambdia,"An ancient place, cited: BAtlas 30 E4 Lambdia",Médéa,-30,640,36.266978,2.775955
"Jr., F.H. Stanley, R.C. Knapp",Nossa Senhora d'Aires,"An ancient place, cited: BAtlas 26 B3 Nossa Senhora d'Aires","Nossa Senhora d'Aires, near Viana do Alentejo POR",-30,640,38.340628,-7.985519
A. Bernand,Metelis,"An ancient place, cited: BAtlas 74 C2 Metelis",Bisintawai,-330,640,31.12039,30.375411
"E.M. Meyers, J.P. Brown",Kapitolias,A city of the Decapolis in northern Jordan.,Beyt er-Ras JOR,-30,640,32.5986015,35.8582935
"David Braund, T. Sinclair",Koralla,"An ancient place, cited: BAtlas 87 E3 Koralla",on Görele Burnu,-550,640,41.075138,39.165352
G.D. Woolf,Oskela?,Oskela? (modern Domodossola) was a chief settlement of the Lepontii and was conquered by the Romans in 12 BC.,Domodossola ITL,-30,640,46.114848,8.29152
"H.S. Sivan, R.W. Mathisen",Condatis,"An ancient place, cited: BAtlas 14 E4 Condatis","Condat, Cm. Libourne",-30,640,44.897877,-0.241729
R.B. Hitchner,Ain-el-Djenane,"An ancient place, cited: BAtlas 32 B4 Ain-el-Djenane","Ain-el-Djenane, ALG",-30,640,36.454166,8.075846
"Jr., F.H. Stanley, R.C. Knapp",Encinasola,"An ancient place, cited: BAtlas 26 D3 Encinasola",Encinasola,-750,640,38.135188,-6.872176
D. Rupp,Koutsopetria,"An ancient place, cited: BAtlas 72 D3 Koutsopetria","Koutsopetria, near Pyla, E Larnaka",-330,640,34.981432,33.706904
"J. Fossey, J. Morin",Kynos,"An ancient place, cited: BAtlas 55 E3 Kynos",Pyrgos/Livanates,-750,640,38.718371,23.070173
C. Foss,Proochthoi/Brochthoi,"An ancient place, cited: BAtlas 53 B2 Proochthoi/Brochthoi",S Kandilli?,-30,640,41.074114,29.058352
"M. Roaf, St J. Simpson",Tell al-Rishayd,"An ancient place, cited: BAtlas 91 F5 Tell al-Rishayd",Tell al-Rishayd,-330,640,32.748277,44.768898
D. Rupp,Ourania,"An ancient place, cited: BAtlas 72 E1 Ourania",NE Rizokarpaso CYX,-550,640,35.649621,34.447198
E.N. Borza,Bogdanci,"An ancient place, cited: BAtlas 50 C2 Bogdanci","Bogdanci, MAC",-30,640,41.202919,22.578751
"C. Foss, S. Mitchell",Amblada,"An ancient place, cited: BAtlas 65 G2 Amblada","Hisartepe, near Kızılca",-330,640,37.518578,31.7386345
"H.S. Sivan, S.J. Keay, R.W. Mathisen",Bene(h)arnum,"An ancient place, cited: BAtlas 25 E2 Bene(h)arnum",Lescar FRA,-30,640,43.332678,-0.434655
"P.-L. Gatier, T. Sinclair",Behyo,"An ancient place, cited: BAtlas 67 D4 Behyo","Behyo, SYR",-30,640,36.206939,36.597945
P.O. Spann,Saguntum/Arse,"An ancient place, cited: BAtlas 27 E2 Saguntum/Arse",Sagunto,-550,640,39.678125,-0.2772475
"C. Foss, G. Reger, S. Mitchell",Lapsarna,"An ancient place, cited: BAtlas 56 B3 Lapsarna","Lapsarna, on Lesbos GRE",-330,640,39.278425,25.924729
"C. Foss, S. Mitchell",Anaboura,"An ancient place, cited: BAtlas 65 F1 Anaboura",Enevre,-330,640,37.990797,31.285104
"E.M. Meyers, J.P. Brown",Bosana,"An ancient place, cited: BAtlas 69 E4 Bosana",Busan SYR,-30,640,32.686895,36.790336
"T. Sinclair, David Braund",Kabeira/Neocaesarea/Diospolis/Sebaste/Hadriane,"An ancient place, cited: BAtlas 87 B4 Kabeira/Neocaesarea/Diospolis/Sebaste/Hadriane",Niksar,-330,640,40.5892125,37.0201215
"M. Roaf, T. Sinclair, S.E. Kroll, St J. Simpson",Arnay?,"An ancient place, cited: BAtlas 89 G2 Arnay?",N Salmas IRN,300,640,38.292013,44.763869
"H.S. Sivan, R.W. Mathisen",Nouiomagos,"An ancient place, cited: BAtlas 14 E3 Nouiomagos","Brion, Cm. St-Germain-d’Esteuil?",-30,2100,45.279445,-0.841712
E.N. Borza,Gjuzemelci,"An ancient place, cited: BAtlas 50 A1 Gjuzemelci","Gjuzemelci, MAC",-30,640,41.867281,21.847558
"Jr., F.H. Stanley, R.C. Knapp",Conobaria/Colobana,"An ancient place, cited: BAtlas 26 D5 Conobaria/Colobana",Cerro de las Vacas (Lebrija),-330,640,36.919538,-6.078318
E.W.B. Fentress,Untitled,"An ancient place, cited: BAtlas 34 D2 unnamed feature ()",Barrington Atlas grid 34 D2,-30,640,35.814642,5.78827
R.B. Hitchner,C-17-I,"An ancient place, cited: BAtlas 32 F4 C-17-I",C-17-I,-30,640,36.44217,10.375191
"J.P. Brown, P.-L. Gatier",Soura,"An ancient settlement, now known as al-Suriyya in Syria.",Sourriya,-30,640,35.8973992504,38.779523193
"T. Wilfong, S.E. Sidebotham, J. Keenan",Diospolis Magna/Thebai,"Diospolis Magna/Thebai was known in ancient Egypt as Waset, ""City of the Sceptre"". The site was designated as a UNESCO World Heritage Site in 1979.",Karnak/Luxor,-2600000,2100,25.664781,32.631884
"F. Hiebert, P.L. Kohl, St J. Simpson",Changly,"An ancient place, cited: BAtlas 98 C1 Changly","Changly, TKM",300,640,37.837197,62.10294
"S. Loseby, R. Häussler",Sanitium,"An ancient place, cited: BAtlas 16 B2 Sanitium",Senez,-30,640,43.913316,6.406847
"M. Roaf, T. Sinclair, S.E. Kroll, St J. Simpson",*Elegoana,"An ancient place, cited: BAtlas 89 F1 *Elegoana",Erciş,300,640,39.026536,43.353333
E.N. Borza,Spančevo,"An ancient place, cited: BAtlas 50 B1 Spančevo","Spančevo, MAC",-30,640,41.935283,22.281941
"S.J. Keay, R.W. Mathisen, H.S. Sivan",Beturri/Bitouris,"An ancient place, cited: BAtlas 25 D3 Beturri/Bitouris",Vidaurreta?,-30,640,42.774678,-1.836091
"S.E. Kroll, M. Roaf, St J. Simpson, T. Sinclair",Tell Farfara,"An ancient place, cited: BAtlas 89 D4 Tell Farfara","Tell Farfara, SYR",-750,640,36.846556,41.335419
S. Mitchell,*Kanytelis,"An ancient place, cited: BAtlas 66 E3 *Kanytelis",Kanlıdivan,-330,640,36.525509121,34.1787370763
"C. Haselgrove, J. Kunow",Flobecq,"An ancient place, cited: BAtlas 11 D2 Flobecq","Flobecq, BGM",-330,640,50.737007,3.737461
"C. Haselgrove, J. Kunow",Camelin,"An ancient place, cited: BAtlas 11 D3 Camelin","Camelin, Cuts",-30,640,49.524845,3.134517
T.W. Potter,Sidi-Haddouch,"An ancient place, cited: BAtlas 30 D3 Sidi-Haddouch",Sidi-Haddouch,-30,640,36.526293,2.137201
"M. Pearce, R. Peretto, P. Tozzi",Brundulum,"An ancient place, cited: BAtlas 40 C2 Brundulum",Brondolo,-30,640,45.19534,12.282209
S. Mitchell,*Pithoi,"An ancient place, cited: BAtlas 63 A4 *Pithoi",probably Kadınhan,300,640,38.240292,32.213204
T. Drew Bear,Spaleia,"An ancient place, cited: BAtlas 62 G3 Spaleia",Sivrihisar,300,640,39.45924,31.5565105
A.G. Poulter,Krushovitsa,"An ancient place, cited: BAtlas 22 A5 Krushovitsa","Krushovitsa, BUL",-30,640,43.625987,23.839783
M. Drew Bear,Apollonopolis Heptakomias Mikra/Sbeht,"An ancient place, cited: BAtlas 77 E3 Apollonopolis Heptakomias Mikra/Sbeht",Kom Isfaht,-30,640,26.937588,31.326702
C. Foss,Parthenia,"An ancient place, cited: BAtlas 86 C2 Parthenia",Bartin,-30,640,41.631543,32.33898
"H.S. Sivan, R.W. Mathisen",Le Clap,"An ancient place, cited: BAtlas 14 H4 Le Clap","Le Clap, Cm. Laguiole",-30,640,44.683577,2.840895
"H.S. Sivan, S.J. Keay, R.W. Mathisen",Calagurris *Fibularia,"An ancient place, cited: BAtlas 25 E3 Calagurris *Fibularia","Loarre?, near Huesca",-330,640,42.325638,-0.611926
H. Bender,Dřetovice,"An ancient place, cited: BAtlas 12 H2 Dřetovice","Dřetovice, settlement and mine CZE",300,640,50.184482,14.208327
"I.E.M. Edlund Berry, A.M. Small",Aeclanum,An ancient settlement in Samnium that came to be associated with the Hirpini.,Mirabella Eclano,-330,2100,41.050302554699996,15.0050311632
C. Foss,Eryth(r)inoi,"An ancient place, cited: BAtlas 86 C2 Eryth(r)inoi",Çakraz,-750,640,41.779469,32.484075
R.B. Hitchner,Furnos Minus,"An ancient place, cited: BAtlas 32 E3 Furnos Minus",Henchir-Msaadine,-330,640,36.693084,9.830048
"A. Hausleiter, M. Roaf, St J. Simpson, R. Wenke",Rostag Kavad/[Askar Mukram],"An ancient place, cited: BAtlas 93 E2 Rostag Kavad/[Askar Mukram]",Askar Mukram,-30,640,31.657498,48.880963
S.T. Parker,Mureigha,"An ancient place, cited: BAtlas 71 B3 Mureigha",Mureigha,-30,640,31.1376805,35.7996645
"M. Roaf, T. Sinclair, S.E. Kroll, St J. Simpson",Phora/‘Phlorianon’?,"An ancient place, cited: BAtlas 89 E2 Phora/‘Phlorianon’?",Por,-30,640,38.41012,42.158099
"T. Wilfong, S.E. Sidebotham, J. Keenan",Petemout/Kerameia?,"An ancient place, cited: BAtlas 80 B2 Petemout/Kerameia?",Medamud,-750,2100,25.705501,32.704914
R.J.A. Wilson,Thermae Himeraeae,"An ancient place, cited: BAtlas 47 D3 Thermae Himeraeae",Termini Imerese,-550,2100,37.9851965,13.6962535
P.O. Spann,Sebelaci,"An ancient place, cited: BAtlas 27 E2 Sebelaci",between R. Millárs (Mijares) and La Rambla de la Viuda?,-330,640,39.959582,-0.138097
"H.S. Sivan, S.J. Keay, R.W. Mathisen",Lactora,Lactora was the capital of the civitas of the Lactorates.,Lectoure FRA,-330,2100,43.933383,0.620535
R.B. Hitchner,Sululos,"An ancient place, cited: BAtlas 32 E4 Sululos",Bir-el-Ach,-30,640,36.461372,9.605158
"R.W. Mathisen, H.S. Sivan",Le Langon,"An ancient place, cited: BAtlas 14 E2 Le Langon",Le Langon,-30,640,46.436934,-0.952463
R.B. Hitchner,Hippo Diarrhytus,Hippo Diarrhytus was an ancient port located on the coast of North Africa. The site is now occupied by the city of Bizerte in Tunisia.,Bizerte,-330,640,37.276147,9.873108
B. Isaac,Phasaelis,"An ancient place, cited: BAtlas 70 G1 Phasaelis",Khirbet Fasayil WBK,-30,640,32.0275145,35.443361
R. Müller Wollermann,Temsiris,"An ancient place, cited: BAtlas 75 D4 Temsiris",Damshir,-30,640,28.143269,30.694751
T. Drew Bear,Arra,"An ancient place, cited: BAtlas 62 G4 Arra",3 miles SE Harunlar,-30,640,38.61636,31.939387
"M. Roaf, St J. Simpson",[Jalula],"An ancient place, cited: BAtlas 91 G3 [Jalula]",Sa'diya,300,640,34.186388,45.118333
R. Müller Wollermann,Talei(this),"An ancient place, cited: BAtlas 75 D2 Talei(this)",Kom Talit,-330,2100,29.100058,30.799901
"P. Kos, M. Šašel Kos",Páty,"An ancient place, cited: BAtlas 20 F2 Páty","Páty, HUN",-30,640,47.513512,18.824703
D. Rupp,Limenia?,"An ancient place, cited: BAtlas 72 B2 Limenia?",SE Petra tou Limniti CYX,-330,640,35.167415,32.741684
W.M. Murray,Çukë e Ajtojt,"An ancient place, cited: BAtlas 54 B2 Çukë e Ajtojt","Çukë e Ajtojt, ALB",-750,640,39.700577,20.136366
"J. Kunow, C. Haselgrove",Kastel,The site of a pre-Roman Celtic oppidum.,"Kastel, GER",300,640,49.5656075,6.562248
"A. Hausleiter, M. Roaf, St J. Simpson, R. Wenke",Medain,"An ancient place, cited: BAtlas 93 B2 Medain","Medain, IRQ",-330,640,31.557513,45.512877
B. Isaac,En Rimmon,"An ancient place, cited: BAtlas 70 F3 En Rimmon",Horvat Rimmon/Khirbet Umm er Rumamin,-30,640,31.394373,34.859426
E.W. Haley,Vicus Aunigainum,"An ancient place, cited: BAtlas 24 G1 Vicus Aunigainum",Ongayo (Suances),300,640,43.4131555,-4.064007
"E.M. Meyers, J.P. Brown",Kochaba/Choba,"An ancient place, cited: BAtlas 69 C4 Kochaba/Choba",Kawkab SYR,-30,640,32.825122,35.925894
"E.M. Meyers, J.P. Brown",Abila Dekapoleos/Seleukeia,"Abila was a Ptolemaic town located in northern Palestine. Antiochus III conquered it and Pompeius Magnus later freed it in 64 B.C. Becoming autonomous thereafter, Abila became part of the Decapolis.",Tell Abil JOR,-330,640,32.6824118229,35.8688986526
N. Purcell,Callifae?,"A city of the Samnites that, according to Livy, was captured by the Romans in Republican times. Probably at or in the vicinity of modern Roccavecchia di Pratella in Italy.",Roccavecchia di Pratella,-330,640,41.405755,14.178842
R.B. Hitchner,Onellaba?/Odiana,"An ancient place, cited: BAtlas 32 B3 Onellaba?/Odiana",Bordj-Bou-Lares ALG,-30,640,36.624498,8.175841
E.W.B. Fentress,Thubursicum Numidarum,"Thubursicum Numidarum (now Khamissa, Algeria) is an indigenous site that became a Roman municipium by A.D. 100 (Municipium Ulpium Traianum Augustum Thubursicu).",Khamissa,-330,640,36.1978175,7.6523805
"J. Fossey, J. Morin",Arne,"An ancient place, cited: BAtlas 55 D4 Arne",Magoula Balomenou,-550,640,38.48288,22.93328
W.V. Harris,Arretium,"Arretium (the Etruscan Aritim) was one of the duodecim populi Etruriae and described by Livy as one of the ""Capitae Etruriae"". The Romans captured the city in 311 B.C. and it became a station on the via Cassia.",Arezzo,-750,2100,43.471274,11.863048
"I.E.M. Edlund Berry, A.M. Small",Manduria,"Manduria was a key Messapic center. Archidamus III, king of Sparta, fell there in 338 B.C. while leading the army of Taras.",NA,-750,640,40.397704,17.636381
"R.W. Mathisen, H.S. Sivan",Campaniacum,"An ancient place, cited: BAtlas 14 F3 Campaniacum",Champagnac-la-Rivière,300,640,45.709358,0.912631
"A. Hausleiter, M. Roaf, St J. Simpson, R. Wenke",KS956,"An ancient place, cited: BAtlas 93 E1 KS956",KS956,-30,640,32.201621,48.657107
E.N. Borza,Spahievo,"An ancient place, cited: BAtlas 51 E1 Spahievo","Spahievo, settlement and mine BUL",-30,2100,41.8975,25.32896
R. Müller Wollermann,Sophthis,"An ancient place, cited: BAtlas 75 E2 Sophthis",Saft Meidum,-330,2100,29.391404,31.159341
D.J. Mattingly,Zaviet Ennablu,"An ancient place, cited: BAtlas 38 C1 Zaviet Ennablu",Zaviet Ennablu,-30,640,32.647229,21.181339
T. Drew Bear,Otrous,"An ancient place, cited: BAtlas 62 C5 Otrous",Yanık Ören,-30,640,38.451497,29.958841
"J. Fossey, J. Morin",Palaiokhori,"An ancient place, cited: BAtlas 55 E3 Palaiokhori","Palaiokhori, Rovies",-750,640,38.827897,23.230678
"C. Haselgrove, J. Kunow",Caranusca?,"An ancient place, cited: BAtlas 11 G3 Caranusca?",Hettange Grande,-30,640,49.406768,6.151663
E.W.B. Fentress,Horrea,"An ancient place, cited: BAtlas 31 C4 Horrea",Ain Roua,-30,640,36.333308,5.181813
E.N. Borza,Demir Kapija,"An ancient place, cited: BAtlas 50 B2 Demir Kapija","Demir Kapija, settlement, fort MAC",-550,640,41.391629,22.386782
"E.J. Keall, M. Roaf",[(A)Bivard]/Apauarktike,"An ancient place, cited: BAtlas 97 E2 [(A)Bivard]/Apauarktike",near Kaakha TKM,-330,640,37.519088000000004,59.670091
R.B. Hitchner,Municipium Aurelium Commodianum/Thibiuca?,An ancient city whose site is now known as Henchir-Zouitina in modern Tunisia.,Henchir-Zouitina,-30,640,36.532162,9.884781
"C. Foss, S. Mitchell",Sagalassos,Sagalassos is an ancient city in Pisidia that was later part of the Roman province of Galatia. The city flourished until natural disasters and disease led to its decline in the sixth century AD.,above Ağlasun,-550,640,37.6728872,30.514161
R.J.A. Wilson,Petrusa,"An ancient place, cited: BAtlas 47 E4 Petrusa","Petrusa, village near Niscemi",-330,640,37.148965,14.386461
"C. Foss, S. Mitchell",Perge,An ancient Greek city of Asia Minor and capital of Pamphylia.,Aksu,-750,640,36.9618175,30.854671
"H.S. Sivan, R.W. Mathisen",*Geinum,"An ancient place, cited: BAtlas 14 E1 *Geinum",Gennes,-30,640,47.3429772012,-0.232585269489
"E.M. Meyers, J.P. Brown",Dionysias/*Soada,"An ancient place, cited: BAtlas 69 E4 Dionysias/*Soada",Suweda SYR,-30,640,32.707083,36.5652865
T. Drew Bear,Goeleon,"An ancient place, cited: BAtlas 62 G3 Goeleon","Kayakent, formerly Holanta",300,640,39.302554,31.812937
"C. Foss, S. Mitchell",Panemoteichos,"An ancient place, cited: BAtlas 65 E3 Panemoteichos",Boğazköy,-30,640,37.264347,30.500706
"Jr., F.H. Stanley, R.C. Knapp",Lama,"An ancient place, cited: BAtlas 26 D1 Lama",Plasencia?,-30,640,40.030524,-6.088261
S. Mitchell,Salambriai/Salaberina,"An ancient place, cited: BAtlas 63 E4 Salambriai/Salaberina",Kepez Tepe,-30,640,38.120083,34.0340025
R.B. Hitchner,Tuniza?,"An ancient place, cited: BAtlas 32 B3 Tuniza?",La Calle ALG,-330,640,36.8912775,8.438117
R.B. Hitchner,Henchir-Mrhotta,"An ancient place, cited: BAtlas 32 F4 Henchir-Mrhotta",Henchir-Mrhotta,-30,640,36.248783,9.997715
T. Drew Bear,Palox?,"An ancient place, cited: BAtlas 62 B2 Palox?",Çardaklı,-30,640,39.514632,29.484267
"J.P. Brown, E.M. Meyers",*Tharba,"An ancient place, cited: BAtlas 69 E4 *Tharba",Tarba SYR,-30,640,32.800561,36.771243
S.M. Burstein,Ash-Shaukan,"An ancient place, cited: BAtlas 81 B3 Ash-Shaukan",Ash-Shaukan,-30,640,22.33562,31.642689
A. Bernand,Thambol,"An ancient place, cited: BAtlas 74 E3 Thambol",Tell Tambu,-30,640,30.850872,31.489655
"R. Warner, A. Bursche",Mrzezino,"An ancient place, cited: BAtlas 2 G3 Mrzezino","Mrzezino, formerly Bresin POL",300,640,54.652959,18.429722
"M. Šašel Kos, P. Kos",Nedinum,"An ancient place, cited: BAtlas 20 C5 Nedinum",Nadin CRO,-330,640,44.071458,15.497238
H. Bender,Gaukönigshofen,"An ancient place, cited: BAtlas 12 D3 Gaukönigshofen",Gaukönigshofen,-30,640,49.633289,10.002276
J.J. Wilkes,Scupi,"Scupi (modern Skopje, Macedonia (Macedonian: Скопје)) has been the site of human settlement since ca. 4000 BC.",Skopje MAC,-30,640,42.0084425,21.4124805
"M. Roaf, St J. Simpson",Tulul al-Ukhaidhir/[Qasr Muqatil]?,"An ancient place, cited: BAtlas 91 E5 Tulul al-Ukhaidhir/[Qasr Muqatil]?",Tulul al-Ukhaidhir,300,640,32.44318,43.60235
"J. Kunow, C. Haselgrove",Fanum Martis,"An ancient place, cited: BAtlas 11 D2 Fanum Martis",Famars,-30,2100,50.311862,3.517835
"C. Foss, S. Mitchell",Kretopolis,"Kretopolis, an ancient settlement of Pisidia discussed by both Diodorus Siculus and Ptolemy.","Buğdüz, near Yüreğil",-330,640,37.374984,30.321707
S. Mitchell,Ninica/Col. Iulia Augusta Felix/Claudiopolis,"An ancient place, cited: BAtlas 66 C3 Ninica/Col. Iulia Augusta Felix/Claudiopolis",Mut,-30,640,36.6425243333,33.4394033333
B. Isaac,Aser,"An ancient place, cited: BAtlas 70 F2 Aser",Yasur ISR,-30,640,31.775393,34.746065
"R.W. Mathisen, H.S. Sivan",Ambaciacum,"An ancient place, cited: BAtlas 14 G3 Ambaciacum",Ambazac,-30,640,45.955991,1.399235
"C. Foss, S. Mitchell",Trebenna,"An ancient place, cited: BAtlas 65 D4 Trebenna",Çağlarca,-330,640,36.8661052722,30.4761133836
R.B. Hitchner,Thizika,Thizica was a civitas in the Roman province of Africa Proconsularis.,Ain-Tachegga,-330,640,37.003737,9.702008
G. Wagner,Ain Tauleib,"An ancient place, cited: BAtlas 79 D2 Ain Tauleib",Ain Tauleib,-30,640,25.69244,30.624032
"H.S. Sivan, R.W. Mathisen",Bridiers,"An ancient place, cited: BAtlas 14 G2 Bridiers","Bridiers, Cm. La Souterraine",-330,640,46.2430347,1.5178516
E.N. Borza,Kyria,"An ancient place, cited: BAtlas 51 C2 Kyria",Kyria,-30,640,41.105467,24.30012
"J.P. Brown, E.M. Meyers",Gaba?,"An ancient place, cited: BAtlas 69 B4 Gaba?",Jaba' ISR,-30,640,32.730365,35.106902
A.S. Esmonde Cleary,Spinis,"An ancient place, cited: BAtlas 8 F3 Spinis",Speen,-30,640,51.411962,-1.343928
H. Bender,Treuchtlingen,"An ancient place, cited: BAtlas 12 D4 Treuchtlingen","Treuchtlingen, Schambach",-30,640,48.956824,10.902862
"E.M. Meyers, J.P. Brown",Horvat Paqu'it,"An ancient place, cited: BAtlas 69 B4 Horvat Paqu'it","Horvat Paqu'it, ISR",300,640,32.504053,35.403782
R.B. Hitchner,Kef-er-Rechga,"An ancient place, cited: BAtlas 32 D3 Kef-er-Rechga",Kef-er-Rechga,-30,640,36.649913,9.066589
"E.M. Meyers, J.P. Brown",*Zizia,"An ancient place, cited: BAtlas 69 C4 *Zizia",Zeizun SYR,-30,640,32.718069,35.941378
"S.J. Keay, R.W. Mathisen, H.S. Sivan",Ictium,"An ancient place, cited: BAtlas 25 G2 Ictium","La Gravette, Cm. de L’Isle-Jourdain FRA",-30,640,43.612693,1.083777
E.W.B. Fentress,Castellum Arsacalitanum,"An ancient place, cited: BAtlas 31 E4 Castellum Arsacalitanum",el Goulia,-30,640,36.306151,6.45677
"T. Sinclair, P.-L. Gatier",Fadana,"An ancient place, cited: BAtlas 67 H3 Fadana",6 m.p. on road Carrhae to Edessa,300,640,36.924628,38.970322
David Braund,Rayevskoye Gorodishche,"An ancient place, cited: BAtlas 84 C4 Rayevskoye Gorodishche","Rayevskoye Gorodishche, near Anapa",-330,640,44.838409,37.548419
"M. Pearce, P. Tozzi",*Forum Germanici,"An ancient place, cited: BAtlas 39 A4 *Forum Germanici",Busca?,-30,640,44.518081,7.475266
R. Müller Wollermann,Terbe,"An ancient place, cited: BAtlas 75 D4 Terbe",Kom Tirfa,300,640,28.386471,30.629406
"M. Roaf, St J. Simpson",Tell Abu Said,"An ancient place, cited: BAtlas 91 A2 Tell Abu Said","Tell Abu Said, SYR",-30,640,35.838964,39.478121
S. Loseby,St-Blaise,"An ancient place, cited: BAtlas 15 D3 St-Blaise",St-Blaise,-750,2100,43.463003,4.981817
"G. Reger, J. McK. Camp II",Pollonia,"An ancient place, cited: BAtlas 58 H4 Pollonia","Pollonia, on Melos",-750,640,36.761562,24.512746
W.V. Harris,Cetamura,"Cetamura is an ancient hilltop settlement with occupation phases stretching from the Etruscans to the Romans to the Medieval period. The site is located near Gaiole, Radda and Castellina in Chianti, Italy.","Cetamura, near Gaiole",-750,2100,43.4927181998,11.4332763569
"M. Šašel Kos, P. Kos",Spalatum,"Spalatum (modern Split, Croatia) is an ancient settlement on the Adriatic coast most noted for the palatial residence of the emperor Diocletian.",Split CRO,-30,2100,43.506883,16.442449
"H.S. Sivan, R.W. Mathisen",Cenabum,Cenabum was an oppidum of the Carnutes tribe.,Orléans,-330,2100,47.9007265,1.9068675
"J. Kunow, C. Haselgrove",Noviomagus,"An ancient place, cited: BAtlas 11 C3 Noviomagus",Noyon,-30,640,49.5805595,3.001804
"M. Roaf, T. Sinclair, S.E. Kroll, St J. Simpson",Sal(a)mas,"An ancient place, cited: BAtlas 89 G2 Sal(a)mas",Salmas IRN,300,640,38.2,44.766666
W.V. Harris,Superaequum,One of three towns of the Paeligni which possessed municipal rights.,near Castelvecchio Subequo,-750,640,42.130585,13.73065
D.J. Mattingly,Kebili,"An ancient place, cited: BAtlas 35 A1 Kebili","Kebili, TUN",-330,640,33.704256,8.970793
R.B. Hitchner,Gor(...),"An ancient place, cited: BAtlas 32 E4 Gor(...)",Henchir-Dra-el-Gamra,-330,640,36.434323,9.97604
"S.E. Kroll, M. Roaf, St J. Simpson, T. Sinclair",Kharaib Mahlabiya,"An ancient place, cited: BAtlas 89 E4 Kharaib Mahlabiya","Kharaib Mahlabiya, IRQ",300,640,36.285871,42.664968
"C. Foss, G. Reger, S. Mitchell",Gargara,"An ancient place, cited: BAtlas 56 D2 Gargara",near Arıklı,-550,640,39.534465,26.540773
N. Purcell,Teanum Sidicinum,Teanum Sidicinum (modern Teano) was the capital of the Oscan-speaking Sidicini tribe. The city likely submitted to Rome after 334 B.C.,Teano,-550,640,41.2502785,14.0700745
T.W. Potter,Rusuccuru,"The ancient city of Rusuccuru was founded as a Punic settlement on the Oued Sebaou river. In the Roman period, an inscription indicates that Rusuccuru achieved the status of municipium under Septimius Severus, yet some sources continue to refer to it as a colonia.",Dellys,-330,640,36.9128545,3.9096445
A.S. Esmonde Cleary,‘Tripontio’,A fortified Roman town along the line of Watling Street.,Cave’s Inn,-30,640,52.4083519939,-1.21482466862
C. Foss,Rouphinianai/Drys,"An ancient place, cited: BAtlas 53 B3 Rouphinianai/Drys",Caddebostan,300,640,40.964583,29.068587
"C. Foss, S. Mitchell",Tabai,"An ancient place, cited: BAtlas 65 A3 Tabai",Davas Kale,-330,640,37.442628,28.856503
"M. Šašel Kos, P. Kos",Siparis,"An ancient place, cited: BAtlas 20 A4 Siparis",Sipar CRO,-30,2099,45.467448,13.507065
"J.P. Brown, E.M. Meyers",Omra,"An ancient place, cited: BAtlas 69 E4 Omra",Amra? SYR,-30,640,32.903344,36.600851
D. Rupp,Drepanon?,"An ancient place, cited: BAtlas 72 A3 Drepanon?",at Ag. Georgios on Cape Drepanon,-330,640,34.9002305,32.3197445
jbecker,Boville Ernica,A hilltop settlement with megalithic fortifications.,NA,-750,2100,41.65,13.466667
"P. Kos, M. Šašel Kos",Raetinium?,"An ancient place, cited: BAtlas 20 C5 Raetinium?",Golubić BOS,-330,640,44.781036,15.938378
E. Bertrand,*Brioratis,"An ancient place, cited: BAtlas 17 E2 *Brioratis",Briord,-30,640,45.782212,5.459292
"H.S. Sivan, S.J. Keay, R.W. Mathisen",It(o)uris(s)a/Turissa,"An ancient place, cited: BAtlas 25 D3 It(o)uris(s)a/Turissa","Ateabalsa (Espinal, Auzperri)",-30,640,42.970648,-1.386239
"J.P. Brown, E.M. Meyers",Akchabare,"An ancient place, cited: BAtlas 69 B4 Akchabare",'Akbara ISR,-30,640,32.930255,35.490747
H. Bender,Baisweil,"An ancient place, cited: BAtlas 19 C2 Baisweil","Baisweil, GER",-30,640,47.943504,10.543667
A. Bernand,Boubastis,"Boubastis (also known, in Arabic, as Tell Basta or, in Egyptian, as Per-Bast) was an ancient city in Egypt. It was located in the Nile Delta and served as the capital of the Am-Khent nome (the Bubastite nome), which was the 18th nome of Lower Egypt. It has been identified with the Biblical Pi-Beseth.",Tell Basta,-750,640,30.5723823112,31.5110853352
"A. Bursche, L.F. Pitts",Piwonice,"An ancient place, cited: BAtlas 13 D1 Piwonice","Piwonice, POL",-330,640,51.720763,18.099685
R.B. Hitchner,Henchir-el-Gousset,"An ancient place, cited: BAtlas 33 C2 Henchir-el-Gousset",Henchir-el-Gousset,-30,640,34.978771,8.599717
"C. Haselgrove, J. Kunow",Vendeuil-Caply,"An ancient place, cited: BAtlas 11 C3 Vendeuil-Caply",Vendeuil-Caply,-330,2100,49.5960876347,2.29582154321
A.S. Esmonde Cleary,Magnis,Magnis was an important market town of the Dobunni tribe.,Kenchester,-30,640,52.0811535,-2.819973
S.T. Parker,Khirbet Shihan,"An ancient place, cited: BAtlas 71 B3 Khirbet Shihan",Khirbet Shihan,-30,640,31.383284,35.733402
jbecker,Deir Qeruh,"Deir Qeruh is a Byzantine-period village located in the Golan Heights within the Israeli national park of the Gamla nature reserve. The village was founded in the fourth century CE, and a church and monastery followed in the sixth century. The village was abandoned following the Arab conquest.",NA,300,640,32.9061539,35.745916
S.L. Dyson,Gouroulis Nea?,"An ancient place, cited: BAtlas 48 A2 Gouroulis Nea?",Cuglieri,-30,640,40.189071,8.567526
J.J. Wilkes,Bijelo Polje,"An ancient place, cited: BAtlas 21 B6 Bijelo Polje","Bijelo Polje, YUG",-30,640,43.037675,19.747921
E. Bertrand,[Sedena],"An ancient place, cited: BAtlas 17 G5 [Sedena]",Seynes,-30,640,44.351631,6.356802
S. Mitchell,Seleucia ad Calycadnum/Tracheia,A city founded by Seleucus Nicator between 296 and 280 BC.,Silifke,-330,640,36.379274,33.9214625
D.J. Mattingly,Bir Kimen,"An ancient place, cited: BAtlas 35 G2 Bir Kimen",Bir Kimen,-30,640,32.204658,14.607208
"L.F. Pitts, A. Bursche",Mikulčice,"An ancient place, cited: BAtlas 13 C4 Mikulčice","Mikulčice, CZE",-30,640,48.80581,17.085383
S. Loseby,Constantine,"An ancient place, cited: BAtlas 15 E2 Constantine",Constantine,-330,640,43.550135,5.123055
R. Müller Wollermann,Toou/Theodosioupolis,"An ancient place, cited: BAtlas 75 D4 Toou/Theodosioupolis",Taha el-Amida,-30,2100,28.171975,30.698945
"M. Roaf, T. Sinclair, S.E. Kroll, St J. Simpson",Bagauna/‘Sagouana’,"An ancient place, cited: BAtlas 89 F1 Bagauna/‘Sagouana’",Üç Kilise,-30,640,39.603879,43.519713
"C. Haselgrove, J. Kunow",Saletio,"An ancient place, cited: BAtlas 11 I4 Saletio",Seltz,-30,640,48.895055,8.106201
"L. Quilici, S. Quilici Gigli",La Storta,A station on the Via Cassia attested in an inscription dated to A.D. 379-383.,La Storta,300,640,42.002408,12.38216
M. Drew Bear,Monkanei,"An ancient place, cited: BAtlas 77 D1 Monkanei","E Hermopolis Magna, near R. Nile",-30,640,27.77341,30.867731
"C. Foss, G. Reger, S. Mitchell",Kenchreai,"A ""Kenchreai in the Troad,"" mentioned first by Stephanus, is probably to be identified with a settlement of Roman date, located atop the Kayalı Dağ in modern Turkey.",Kayalı Dağ,-30,640,39.963522,26.628763
"I.E.M. Edlund Berry, A.M. Small",Turenum,"An ancient place, cited: BAtlas 45 D2 Turenum",Trani,-30,640,41.275544,16.417622
A.S. Esmonde Cleary,Medbourne,"An ancient place, cited: BAtlas 8 G2 Medbourne",Medbourne,-30,640,52.529158,-0.822401
"C. Foss, G. Reger, S. Mitchell",Pionia(i),"An ancient place, cited: BAtlas 56 F2 Pionia(i)",Gömeniç,-550,640,39.626196,27.579568
"T. Sinclair, David Braund",Gadilon/Helega?,"An ancient place, cited: BAtlas 87 A3 Gadilon/Helega?",Bafra?,-330,640,41.571325,35.894016
"J.P. Brown, P.-L. Gatier",Tell Soukas/Pelleta?,"An ancient place, cited: BAtlas 68 A3 Tell Soukas/Pelleta?",Tell Soukas,-750,640,35.298878,35.925913
R. Müller Wollermann,Bousiris,"An ancient place, cited: BAtlas 75 E2 Bousiris",Abu Sir el-Meleq,-330,640,29.250259,31.086541
T. Drew Bear,Tabala,"An ancient place, cited: BAtlas 62 A4 Tabala",Burgaz,-30,640,38.612168,28.803373
S.E. Kroll,Yanik tepe,"An ancient place, cited: BAtlas 90 B3 Yanik tepe","Yanik tepe, near Tazekand",-330,640,37.921845,46.022187
"C. Haselgrove, J. Kunow",Decem Pagi,"An ancient place, cited: BAtlas 11 G4 Decem Pagi",Tarquimpol,-30,2100,48.78451,6.75762
R. Müller Wollermann,Tilothis/Neiloupolis,"An ancient place, cited: BAtlas 75 E2 Tilothis/Neiloupolis",Dalas,-330,2100,29.184652,31.12046
R.B. Hitchner,Sustri,"An ancient place, cited: BAtlas 32 D3 Sustri",Henchir ben-Ergueia,-330,640,36.547633,9.29794
"M. Roaf, T. Sinclair, S.E. Kroll, St J. Simpson",Gymnias/Daranissa/Datamisa,"An ancient place, cited: BAtlas 89 D1 Gymnias/Daranissa/Datamisa","Pasinler, formerly Hasankale",-550,640,39.984743,41.6662835
"A. Bursche, L.F. Pitts",Cífer-Pác,"An ancient place, cited: BAtlas 13 C4 Cífer-Pác","Cífer-Pác, SVK",-30,640,48.310632,17.502715
W.V. Harris,Plestia,Plestia was a municipium of the tribus Ufentina.,Pistia,-550,2100,43.0303410195,12.9037724984
E.W. Haley,Lacobriga,"An ancient place, cited: BAtlas 24 G2 Lacobriga",Iglesia de Belén (Carrión de los Condes),-330,640,42.338959,-4.601768
"I.E.M. Edlund Berry, A.M. Small",Luceria/Noukeria (Apoulon),Luceria/Noukeria (Apoulon) was originally a Daunian city. It was named as a Colonia Togata in 320 B.C. and came to play a significant role in the Second Punic War. Constans II sacked the town in A.D. 663.,Lucera,-550,2100,41.5086475,15.3354745
G. Wagner,Hindaw,"An ancient place, cited: BAtlas 79 inset Hindaw",Hindaw,-30,640,25.549199,28.997721
"A. Hausleiter, M. Roaf, St J. Simpson, R. Wenke",Tell Abu Khay,"An ancient place, cited: BAtlas 93 B1 Tell Abu Khay","Tell Abu Khay, IRQ",-750,640,32.307928,45.611979
"M. Roaf, St J. Simpson",U671,"An ancient place, cited: BAtlas 91 G5 U671",U671,-330,640,32.336299,45.159836
G.D. Woolf,Aventicum,"An ancient settlement of the Helvetii, located between Aare and Lake Geneva. Modern Avenches in Switzerland.",Avenches SWI,-30,2100,46.88008,7.04071033333
J.J. Wilkes,Vratarnica,"An ancient place, cited: BAtlas 21 E6 Vratarnica","Vratarnica, YUG",-30,640,43.798934,22.297853
M. Drew Bear,Tachoi,"An ancient place, cited: BAtlas 77 D1 Tachoi",Tukh,-330,640,27.685977,30.826197
"C. Foss, S. Mitchell",Lyrbe?,"An ancient place, cited: BAtlas 65 F4 Lyrbe?",probably at Şıhlar,-330,640,36.873988,31.475921
C. Foss,Delkos,"An ancient place, cited: BAtlas 52 D2 Delkos",Derkoz,-30,640,41.299878,28.678392
T.W. Potter,Obori?,"An ancient place, cited: BAtlas 30 E3 Obori?",Sidi Ferruch,-30,640,36.763227,2.843829
E.W.B. Fentress,Mesarfelta,"An ancient place, cited: BAtlas 34 D2 Mesarfelta",el Outaya,-30,640,35.036204,5.592835
"I.E.M. Edlund Berry, A.M. Small",Barduli,"An ancient place, cited: BAtlas 45 D2 Barduli",Barletta,-330,640,41.319271,16.283979
N. Purcell,Amalfitana Civitas,"An ancient place, cited: BAtlas 44 G4 Amalfitana Civitas",Amalfi,300,640,40.634361,14.60257
"C. Foss, G. Reger, S. Mitchell",Teuthrania,"An ancient place, cited: BAtlas 56 E3 Teuthrania",Kalerga,-750,640,39.035223,27.054771
T. Drew Bear,Kotiaeion,"An ancient place, cited: BAtlas 62 C3 Kotiaeion",Kütahya,-1750,2000,39.41814785,29.98451115
David Braund,Mangup,"An ancient place, cited: BAtlas 23 G4 no. 102 (Mangup-Kale)",Mangup-Kale,-30,2100,44.59281,33.80093
J.J. Wilkes,Lyke,"An ancient place, cited: BAtlas 49 D3 Lyke",Ag. Achilleos in L. Prespa GRE,-330,640,40.765172,21.099874
S.M. Burstein,Bir Meneiga,"An ancient place, cited: BAtlas 81 F3 Bir Meneiga","Bir Meneiga, EGY/SUD",-30,640,22.78333,35.2
"P. Kos, M. Šašel Kos",Pomáz,"An ancient place, cited: BAtlas 20 G2 Pomáz","Pomáz, HUN",-30,640,47.647277,19.026958
"A. Hausleiter, M. Roaf, E.J. Keall",[Kangavar]/Concobar,"An ancient place, cited: BAtlas 92 C2 [Kangavar]/Concobar",Kangavar,-330,640,34.502892,47.955711
"J. Fossey, J. Morin",Olizon,"An ancient place, cited: BAtlas 55 E2 Olizon",Ag. Andreas/Palaiokastro,-750,640,39.128079,23.21081
R. Müller Wollermann,Dionysias,"An ancient place, cited: BAtlas 75 C2 Dionysias",Qasr Qarun,-330,2100,29.40642,30.417435
A.S. Esmonde Cleary,Catsgore,"An ancient place, cited: BAtlas 8 E3 Catsgore",Catsgore,-30,640,51.031934,-2.706189
G.D. Woolf,Lousonna,Lousonna began as a Roman military establishment on the site of a Celtic center.,Lausanne SWI,-330,640,46.522586,6.6353401
A. Bernand,Tamiathis,"An ancient place, cited: BAtlas 74 F2 Tamiathis",Damiette,300,2100,31.417068,31.812588
"C. Foss, S. Mitchell",Parlais/Col. Iulia Augusta Hadriana,"An ancient place, cited: BAtlas 65 E1 Parlais/Col. Iulia Augusta Hadriana",Barla,-30,640,38.0148725,30.7878535
A.G. Poulter,Emporium Discoduraterae,"An ancient place, cited: BAtlas 22 C5 Emporium Discoduraterae",Gostilitsa BUL,-30,640,43.02356,25.368331
J.J. Wilkes,Stari Brod,"An ancient place, cited: BAtlas 21 B6 Stari Brod","Stari Brod, BOS",-30,640,43.872813,19.210451
"A. Hausleiter, M. Roaf, St J. Simpson, R. Wenke",Aqola/[al-Kufa],"An ancient place, cited: BAtlas 93 A1 Aqola/[al-Kufa]",al-Kufa IRQ,300,640,32.001972,44.340693
"P.-L. Gatier, T. Sinclair",Tourin,"An ancient place, cited: BAtlas 67 C4 Tourin","Tourin, SYR",-30,640,36.075001,36.473587
"R.W. Mathisen, H.S. Sivan",*Tornomagus?,"An ancient place, cited: BAtlas 14 F2 *Tornomagus?",Tournon-St-Pierre,300,640,46.738166,0.953976
"J. Fossey, J. Morin",Limnaion,"An ancient place, cited: BAtlas 55 C1 Limnaion",Vlokhos,-750,640,39.505191,22.106587
"F.T. Hiebert, P.L. Kohl",Khush bai,"An ancient place, cited: BAtlas 99 D3 Khush bai","Khush bai, AFG",-550,640,36.722228,69.550292
"C. Foss, G. Reger, S. Mitchell",Metokhi,"An ancient place, cited: BAtlas 56 B5 Metokhi","Metokhi, on Khios GRE",-550,640,38.427718,25.960923
S.M. Burstein,Tafis,"An ancient place, cited: BAtlas 81 C2 Tafis",Tafa,-30,640,23.637446,32.863758
David Braund,Rostovskoye,"An ancient place, cited: BAtlas 84 E1 Rostovskoye","Rostovskoye, near Rostov",-30,640,47.21365,39.696396
R.B. Hitchner,Henchir-Menzel-Yahia,"An ancient place, cited: BAtlas 32 H3 Henchir-Menzel-Yahia",Henchir-Menzel-Yahia,-30,640,36.781099,10.988878
C. Foss,Phidalia Petra,"An ancient place, cited: BAtlas 53 B2 Phidalia Petra",at Baltalimanı,-30,640,41.099551,29.050838
B. Isaac,Kapparetaia,"An ancient place, cited: BAtlas 70 F1 Kapparetaia",Khirbet Kafr Hatta,-30,640,32.122685,34.959269
J.J. Wilkes,Cel(...),"An ancient place, cited: BAtlas 21 C6 Cel(...)",Ivanjica YUG,-30,640,43.583305,20.233355
gmckee,Ramat Raḥel,An archaeological site identified by Yohanan Aharoni as a possible location of Beit HaKerem.,NA,-1200,2100,31.739992,35.218992
"C. Foss, S. Mitchell",Herakleia Salbakes,"An ancient place, cited: BAtlas 65 A2 Herakleia Salbakes",Vakıf,-330,640,37.632878,29.003497
"S.J. Keay, R.W. Mathisen, H.S. Sivan",Caesada?,"An ancient place, cited: BAtlas 25 B5 Caesada?",Espinosa de Henares,-30,640,40.90396,-3.073496
David Braund,Isiakon Limen,"An ancient place, cited: BAtlas 23 D2 Isiakon Limen",Odessa,-550,640,46.530976,30.778144
S. Mitchell,Mataza,"An ancient place, cited: BAtlas 63 F4 Mataza","Maziköy, formerly Madazi",300,640,38.4787355,34.754597
"R.W. Mathisen, H.S. Sivan",Dolus,"An ancient place, cited: BAtlas 14 F1 Dolus",Dolus-le-Sec?,300,640,47.18047,0.863485
M. Drew Bear,(T)Polybiane,"An ancient place, cited: BAtlas 77 F4 (T)Polybiane",Balyana,300,640,26.234131,32.002693
E.N. Borza,Bansko,"An ancient place, cited: BAtlas 50 D1 Bansko","Bansko, BUL",-30,640,41.836423,23.498736
"C. Foss, S. Mitchell",Boubon,"An ancient place, cited: BAtlas 65 B4 Boubon",Ibecik,-330,640,36.968283,29.407828
E.N. Borza,Mikro Souli,"An ancient place, cited: BAtlas 51 B3 Mikro Souli",Mikro Souli,-30,640,40.901613,23.933495
J.J. Wilkes,Biatorbágy,"An ancient place, cited: BAtlas 21 A2 Biatorbágy","Biatorbágy, HUN",-30,640,47.471208,18.825224
S.E. Kroll,Darman,"An ancient place, cited: BAtlas 90 A2 Darman",Darman,300,640,38.54017,45.58602
A.S. Esmonde Cleary,Durobrivae,"Roman town at present day Rochester, cited: BAtlas 8 H3 Durobrivae",Rochester,-550,2100,51.3896486672,0.502597173879
W.V. Harris,Spoletium,An ancient city along the route of the Via Flaminia; an initial colony was established there in 241 BC.,Spoleto,-330,640,42.745301,12.73839
R.B. Hitchner,Turratenses,"An ancient place, cited: BAtlas 33 B2 Turratenses",Henchir-Radjel ALG,-30,640,35.4340675,8.0811225
R.J.A. Wilson,Piano della Camera,"An ancient place, cited: BAtlas 47 E4 Piano della Camera","Piano della Camera, farm/village settlement",-750,640,37.162942,14.343444
"H.S. Sivan, R.W. Mathisen",Musciacas?,"An ancient place, cited: BAtlas 14 I3 Musciacas?",Moissat,-30,640,45.774457,3.353397
David Braund,Mokro-Chaltyrskoye 2,"An ancient place, cited: BAtlas 84 E1 Mokro-Chaltyrskoye 2","Mokro-Chaltyrskoye 2, near Rostov",-30,640,47.2467,39.458446
"A. Hausleiter, M. Roaf, St J. Simpson, R. Wenke",U798,"An ancient place, cited: BAtlas 93 B1 U798","U798, IRQ",-30,640,32.254433,45.234653
D.J. Mattingly,Gasr Mismar,"An ancient place, cited: BAtlas 38 C1 Gasr Mismar",Gasr Mismar,-30,640,32.773217,21.863314
A.G. Poulter,Beroe/Augusta Traiana,"An ancient place, cited: BAtlas 22 C6 Beroe/Augusta Traiana",Stara Zagora BUL,-330,640,42.4254025,25.624862
J.J. Wilkes,Albanopolis,"An ancient place, cited: BAtlas 49 B2 Albanopolis","Zgërdhesh?, near Kruja ALB",-30,640,41.512333,19.792561
H. Bender,Lutzengüetlekopf,"An ancient place, cited: BAtlas 19 B2 Lutzengüetlekopf","Lutzengüetlekopf, LIE",300,640,47.201984,9.52861
"H.S. Sivan, S.J. Keay, R.W. Mathisen",Lapurdum,"An ancient place, cited: BAtlas 25 D2 Lapurdum",Bayonne FRA,-30,2100,43.492723,-1.474944
G. Wagner,*Kalamon,"An ancient place, cited: BAtlas 79 inset *Kalamon",Qalamun,-30,2100,25.548988,28.907661
H. Bender,Mühltal,"An ancient place, cited: BAtlas 19 E2 Mühltal","Mühltal, GER",-30,640,47.838573,12.315641
"J.P. Brown, E.M. Meyers",Qafr,"An ancient place, cited: BAtlas 69 E4 Qafr","Qafr, SYR",300,640,32.637884,36.640216
"C. Haselgrove, J. Kunow",St-Dié,St-Dié was the site of a Gallo-Roman settlement located on the Meurthe river.,St-Dié,-30,2100,48.283644,6.948913
H. Bender,Vallatum?,At Vallatum? (the Oppidum of Manching) are the remains of a massive proto-urban Celtic settlement that reached its maximum size of ca. 380 ha during the late La Tène period (late second century BC).,Manching,-330,2100,48.717024,11.493325
"H.S. Sivan, R.W. Mathisen",*Gemiliacum,"An ancient place, cited: BAtlas 14 G3 *Gemiliacum","settlement and mine, Jumilhac-le-Grand",-330,640,45.492715,1.061504
"C. Foss, S. Mitchell",Hamaxia?,"An ancient place, cited: BAtlas 65 G4 Hamaxia?",Sinekkalesi?,-330,640,36.5784088996,31.9395582303
C. Foss,Marsylla/Kallistratia?,"An ancient place, cited: BAtlas 86 D1 Marsylla/Kallistratia?",Kışla?,-30,640,42.002968,33.405624
"J.P. Brown, E.M. Meyers",Sandala,"An ancient place, cited: BAtlas 69 B4 Sandala","Sandala, ISR",300,640,32.523226,35.323017
