country,year_of_discovery,find_spot_id,find_spot_name,total_number_of_coins,terminal_year_earliest,terminal_year_latest,lat,long,summary,disposition,century
France,1894,8721,ANNECY 1894,26,183,183,45.907,6.124,26 bronze coins: Vespasian - Commodus (AD 183).,"Musée Château d'Annecy, France; Registre d'entrée, II, p. 230, no. 12.428",II century
Switzerland,2019,16175,PRATTELN BL 2019,304,181,182,47.5099,7.6959,"A hoard of 304 silver coins (303 denarii and 1 drachm), ranging from Nero to Commodus, found in summer 2019 (with 6 additional coins found in 2020) on the Adlerberg, near Pratteln.",Archäologie Baselland,II century
Poland,2007,13495,PRZEZWISKA,28,194,197,52.1201,19.6482,Around 200 denarii. The person who ppresented 46 denarii mentioned that in total may have found around 200 pieces. Only 28 coins could be described. One denarius of Antoninus Pius was found in 2010: Vitellius - Clodius Albinus (AD 194-197).,NA,II century
"England, United Kingdom",1956,14556,TEAN,3,194,195,49.963481,-6.3242033,"Penhallurick 2009, 269: ""The museum on St Mary's has three sestertii found in a midden layer on the southern shoreline of Tean in 1956. Accompanying pottery indicated an occupation from the first to the fourth centuries and included sherds of samian ware and a bronze brooch (Thomas 1985, p.183)"". He notes that the second sestertius of Marcus Aurelius listed here may have been turned into a brooch (bronze adhered to the bottom of the reverse), though this has not been verified.",NA,II century
Germany,1966,17475,GNOTZHEIM 1966-1968,47,194,195,49.05712,10.70444,A hoard of Roman denarii comprising at least 47 coins ranging from Nero to Septimius Severus.,NA,II century
Poland,1920,16241,ZARZECZE,120,161,180,50.524565,22.205134,"Hoard of 120 denarii. Among issuers, Trajan and Marcus Aurelius. No further details.",NA,II century
Germany,1932,15482,WINHÖRING,6,183,191,48.265403,12.64678,6 sestertii were found at a gravel pit close to Eisenfeld.,NA,II century
Poland,1700,13453,KORZKIEW,189,180,192,50.1626,19.8823,Around 800 denarii of wchich 189 provided information on the issuers: Nero - Commodus (AD 180-192).,"National Museum, Poznań, Poland",II century
Israel,1961,8463,CAVE OF HORROR,4,132,136,31.42981099715,35.347862539594,Four coins of Bar Kochba (AD 132-136).,NA,II century
Germany,1950,6948,GAUTING 1950/51,12,134,138,48.06,11.3758,A hoard of 12 denarii (Vespasian - Hadrian) was found during the archaeological excavation of a building thought to be a granary and comprised of thirteen Denarii coins.,NA,II century
Romania,1933,16317,FEDELEȘENI,46,180,192,47.122581,26.974436,"Hoard of at least 46 denarii: Nero – Commodus (AD 180-192). Possible, part of the hoard from Strunga.","National History Museum, Bucharest, Romania (25 coins)",II century
Germany,1870,16598,BURG DELLINGEN BEI BRUGGEN,27,145,176,47.92439,8.41776,27 bronze coins (Tiberius - Marcus Aurelius) found in an ash layer covered by a stone and interpreted as a votive deposit.,NA,II century
"England, United Kingdom",2001,14669,SPRINGHEAD ROMAN TOWN 2001,16,138,161,51.415161,0.31384514,"A number of coin finds were made during controlled archaeological excavation by Wessex Archaeology at the RLE sites Springhead Roman Town (RLE Event Code ARC SPH00) and Springhead Nursery (ARC SHN02) as part of the programme of archaeological works undertaken in advance of the construction of the Channel Tunnel Rail Link (now known as HS1), between 2000 and 2003.",NA,II century
Slovakia,1904,8204,DRŽENICE,236,161,180,48.286742,18.697001,236 aurei and denarii from the time of Marcus Aurelius (AD 161-180).,NA,II century
Sweden,1857,15595,SANDA,5,186,186,57.428889,18.229138,"Originally 5 denarii, 1 preserved: Hadrian - Commodus (AD 186). Found together with 1 gold finger ring, 3 silver finger rings.","Swedish History Museum, Stockholm (inv.no. 2409)",II century
Germany,1936,17085,GRESSENICH VICHT,45,138,161,50.74482,6.26577,A find of 45 Roman denarii (Otho - Antoninus Pius) was made in a garden in Vicht. The coins were found in charcoal residues.,NA,II century
Romania,1938,2595,TIBRU,220,141,161,46.196,23.558,"220 denarii: Republican (163), Imperial (57); Republican - Antoninus Pius (AD post 141)","Union Museum Alba Iulia, Romania (49 coins)",II century
Ukraine,2018,20664,CYHYRYN - SURROUNDINGS,32,180,192,49.0719491069,32.6743013453,"A hoard of 32 Roman imperial denarii (from Trajan to Commodus) was found in April 2018 in Cherkassy region. Information about the hoard was published in three videos on YouTube, in the channel “Aleksander Mercedes w poiske klada”. The hoard was discovered by a group of treasure hunters on April 20, 2018 on ploughed field, at a depth of up to 15 cm. 21 coins and half of a bronze bracelet were collected from the surface of ca. 10-15 square m (the main concentration, 12 coins, in an area of 5x5 m). On April, 24 a sondage was undertaken at the findspot (ca. 3x3 m. with a depth of ca. 20-50 cm), and 6 more coins were found, including one broken into several pieces. On August 31, 2018, one of the finders found another 5 denarii at the site of the main concentration of coins. It is possible that further searches were also made at this site. The fate of the coins in the hoard is unknown. The identification of the coins was based on the photos that were posted in this video.",NA,II century
Syria,1932,9826,DURA EUROPOS 21,18,183,183,34.747,40.73,"A hoard of 18 denarii (Otho-Commodus) found during excavations at Dura Europos, in E4-15.",Yale University,II century
Slovenia,1990,9060,LAŽE,22,147,161,45.735,14.069,22 asses: Augustus - Antoninus Pius (AD 145-161) .,"Narodni muzej Ljubljana, Slovenia, inv.no.: 9039-9060",II century
France,1881,7344,CLERMONT-FERRAND 1881,100,138,180,45.776,3.083,"The hoard comprised an earthenware vessel containing 100 Roman coins including denarii, sestertii and dupondii, nearly all issues of Antoninus Pius, Faustina I and Faustina II.",NA,II century
Belgium,1909,17417,MEUX-SAINT-DENIS,59,190,191,50.542388,4.791821,"Unknown originally number of coins. 59 bronze coins are known: 51 sestertii, 9 dupondii: Trajan - Commodus (AD 190-191).",Finder's collection,II century
Germany,1989,5481,REGENSBURG-KUMPFMÜHL,638,165,166,49.007871091391,12.082502204616,"The hoard was hidden inside the camp: 25 aurei, 610 denarii, 2 asses, 1 quadrans, as well as gold and silver jewelry in a bronze cauldron: Republic - Marcus Aurelius (AD 165-166).","Historischen Museum der Stadt Regensburg, Germany",II century
Italy,1925,12551,CAMIN,1081,193,193,45.401,11.944,"In 1925 a hoard comprising 1081 bronze coins, originally included in a pottery vessel, was found after agricoltural works. Coins inlcuded in this hoard returned to the finders and went missing, except for 1 sestertius of Didia Clara now kept in the Museum Bottacin in Padua. Only a brief report on the coins included in the hoard is now available.",NA,II century
Bulgaria,1935,10099,SMIRNENSKI 1935,11,138,161,43.6291,23.0311,Unknown quantity of silver and bronze coins found in a copper vessel. 11 coins in the History Museum in Lom: Trajan - Antoninus Pius (AD 138-161).,"History Museum, Lom Bulgaria; (11 coins)",II century
Portugal,1744,17595,BRAGA 1744,300,161,180,41.550070509781,-8.4269290383417,300 aurei: Nero - Marcus Aurelius (AD 161-180).,Dispersed,II century
Belgium,1993,9230,LIBERCHIES 1993-2003,10,117,138,50.5138,4.4212,"10 coins, a finger ring and a fibula in a wooden case with 3 hinges preserved",Musée communal des Beaux Arts et d'Archéologie de Nivelles,II century
Sweden,1895,15590,SKOTA,3,161,180,57.308191,18.360171,"Three denarii found on a field: Trajan 1, Lucilla 1, Faustina II/Lucilla 1","Swedish History Museum, Stockholm (inv.no. 9909)",II century
Egypt,2012,20922,AMHEIDA,850,138,161,25.6676117977,28.8706203539,"A hoard of ca. 850 Alexandrian tetradrachms (Nero to Antoninus Pius) found at Amheida (Dakhla/Dakhleh oasis) in area 4, divided in three textile bags, on top of a mudbrick debris layer filling pit F90, immedialely adjacent to the temple of Thoth.",NA,II century
Italy,1951,13812,GRELLO,39,161,161,43.208791,12.738033,39 Roman imperial denarii found with a ceramic vessel: Vitellius - Marcus Aurelius (AD 161-180).,NA,II century
Italy,1875,16189,PAGOGNA,35,138,161,46.07305,12.098898,"35 bronze coins: medallions and coins: Nero, Vespasian, Titus, Trajan, Hadrian, Antoninus Pius (AD 138-161).",NA,II century
Germany,1977,18670,DORMAGEN 1977,10,161,162,51.09683,6.83167,10 denarii (Vespasian - Marcus Aurelius) found corroded together with a bronze fibula and a clasp. They might have been contained in a purse.,NA,II century
Romania,2008,9140,JUPA 2008,7,180,192,45.466,22.189,7 sestertii: Trajan - Commodus (AD 180-192) found in a building from the military vicus.,"Centrul de Studii de Istorie și Arheologie, Timișoara, Romania; inv.no. 237/2005",II century
Switzerland,1965,6440,AIROLO TI - MADRANO 1965 / TOMB 1,8,161,161,46.526,8.628,"The hoard comprised 1 denarius (Diva Faustina I) and 8-9 aes coins ranging fro Hadrian to Faustina II. They were recovered during the excavation of a inhumation burial (tomb 1/1965) in the necropolis and were interpreted as the contents of a purse. Only 5 coins are preserved today, but descriptions of the other ones exist.","Ufficio dei beni culturali, Bellinzona (5 coins); lost (4-5 coins)",II century
Belarus,2010,20999,TSIAPY,28,191,192,53.691373443191,24.463800815609,Hoard of uncertain number of imperial denarii found while metal detecting. 28 coins were presented to the museum: Hadrian - Commodus (AD 191-192).,"Grodno State Historical and Archaeological Museum, Belarus",II century
Ukraine,1864,18193,BORINYA,100,180,192,49.07299521008,23.000729833964,Hoard of 100 denarii: Trajan - Commodus (AD 180-192).,NA,II century
Egypt,1909,7806,EGYPT A64,1300,171,172,26.821,30.802,"1,300 Provincial bronze coins of Alexandria: . 'Acquired in Egypt by Dattari, who sold it to Milne and Currelly.'","Partly in Oxford, partly in Toronto.",II century
Sweden,1894,15603,LILLA BLÄSNUNGS,2,163,164,57.68331,18.380685,"2 denarii: Vespasian (Domitian Caesar), Marcus Aurelius (AD 163-164); silver weight: 5.33 g.","Swedish History Museum, Stockholm (inv.no. 9960)",II century
Netherlands,1828,12563,VOORBURG-ARENTSBURG 1828 1,34,117,138,52.074,4.358,"34 coins found by Caspar Reuvens in 1828: 2 denarii, 3 sestertii, 15 asses, 6 dupondii, 6 dupondius/as, others unclear: Nerva - Hadrian (AD 117-138).",NA,II century
Germany,1908,17017,KASTELL ZUGMANTEL KELLER 208,6,140,143,50.18977,8.20364,"In 1908, 6 denarii (Domitian to Antoninus Pius) were found lying together at the entrance of cellar 208 (in the vicus surrounding the Roman fort).",NA,II century
Portugal,1877,12894,MEIXEDO,102,161,169,41.757205979668,-8.7043809517757,102 bronze coins found with an amphora and dispersed in the coin trade: Tiberius - Marcus aurelius (AD 161-180).,Dispersed,II century
Israel,2011,7733,AMAZIA,77,125,128,31.532975345013,34.913890505429,The hoard comprised 77 silver coins dated between 32/31 BC and AD 125-128.,Israel Antiquities Authority (IAA 139374-139452),II century
Netherlands,2017,12636,HAPS 2017,32,197,198,51.69,5.861,"32 coins: 1 republican denarius, 31 bronze coins: Augustus - Septimius Severus (AD 197-198).",NA,II century
Netherlands,1921,9893,FINKUM,26,194,194,53.278,5.757,"26 denarii found in three separate finds (1921, 1924, and 1946): Hadrian - Septimius Severus (AD 194).","Frisian Museum, Leeuwarden (nos. FML A 1373-1381)",II century
Albania,1941,9351,DURRËS 1941,3901,170,175,41.325,19.456,"This hoard was found in three ceramic pots and contained more than 4000 silver coins from which H. Ceka has published a total of about 3900 Roman Imperial coins in 1958. According to the publication of the hoard, which refers to the inquiry held by the Albanian Institutions at the time of the discovery, the hoard was constituted by silver coins and gold jewelry (rings, necklaces) but the latter was dispersed immediately after the discovery. Also, more than 100 coins were dispersed after the discovery. The coins are mostly Denarius dating from Nero to Marcus Aurelius (54-175 AD). Based on the numismatic data (there is no archaeological excavation that can help at the precision of the hoard's burying date), it should have been buried around or short after 170 AD.","The hoard is actually part of the collection of the Coin Cabinet, Institute of Archaeology, Albania",II century
Sweden,1918,15620,VARVSHOLMEN,5,172,173,56.669292,16.377053,"Five denarii: Vespasian, Hadrian, Antoninus Pius, Marcus Aurelius, Marcus Aurelius (Faustina II Augusta) (AD 172-173).","Swedish History Museum, Stockholm (inv.no. 16085)",II century
Belgium,1975,8521,POMMEROEUL 1975,7,181,180,50.462,3.713,Unknown originally number of coins found with a ceramic vessel. 7 sestertiiare known: Trajan - Commodus (AD 181).,NA,II century
"Scotland, United Kingdom",2008,18576,CLARKLY HILL,86,180,191,57.6967,-3.461,86 denarii: Mark-Antony - Commodus (Crispina) (AD 180-191).,NA,II century
Poland,1909,13438,IWNO,63,180,192,52.4039,17.2718,Unknown initial number of denarii. Sixty-three coins were seen in the collection of the Friends of sciences Society Collection in Poznań: Vespasian - Commodus (AD 180-192).,"Friends of sciences Society Collection, Poznań, Poland (63 coins)",II century
"Israel, Palestinian Territories",1970,8493,IDNA 1970,190,132,136,31.558055714586,34.97756926885,The hoard comprised approximately 40 tetradrachms and 150 denarii from the Second Jewish Revolt (AD 132-136).,NA,II century
"Israel, Palestinian Territories",1976,8499,DUMA,1200,132,136,31.4273,34.982,"The hoard comprised around 200 tetradrachms and 1,000 denarii from the Second Jewish Revolt (AD 132-136).",NA,II century
Romania,1994,9229,MANGALIA 1994,13,161,175,43.8188,28.549,"13 bronze coins: 4 sestertii, 2 dupondii, 7 asses: Claudius I - Marcus Aurelius (AD 161-175).","Muzeul de Istorie Națională și Arheologie, Constanța, Romania; inv.nos. 64682-64694",II century
Romania,1878,16303,SIGHETUL MARMAȚIEI,6,161,180,47.93873,23.876588,Unknown originally number of coins. Six denarii of Marcus Aurelius were seen.,NA,II century
Greece,2006,6858,PHILIPPOI 2006 T45,13,103,111,41.025,24.339,"13 coins (10 provincial coins of Philippi, 2 denarii of Trajan and 1 imperial bronze of Domitian) found in grave T45 in the eastern cemetery of Philippi.",NA,II century
France,1945,5863,TEILLÉ,16,138,161,47.461,-1.279,"The hoard comprised 16 coins with the denominations not given. The hoard was found on the Barre farm, while making repairs to the farmyard.",NA,II century
"England, United Kingdom",2011,14862,AMBER VALLEY 2011-13,9,166,180,53.055049,-1.4643516,"6 sestertii recorded with the PAS, 3 further from excavation of the site (see Amber Valley barbarous radiate hoard). Not classed as Treasure.",NA,II century
France,1864,8747,ARENTHON,2,161,180,46.106,6.334,"Funerary find: 2 aurei in a grave: Nero, Marcus Aurelius","Musée Château d'Annecy, France; Registre des entrées, III, f. 114, nos. 3558-3559",II century
France,1825,5720,SAINT-RÉMY-BOSCROCOURT,150,138,161,50.0091,1.3948,The hoard was found in a broken ceramic vessel. It comprised approximately 150 'large bronzes' likely to be sestertii. The hoard was discovered by a farm labourer on the plain of Saint-Rémy.,NA,II century
Romania,1971,16305,TĂMĂȘENI,52,161,180,46.993303,26.951325,Unknown originally number of coins. 52 denarii were found with a hand-made ceramic vessel: Mark Antony – Marcus Aurelius (AD 161-180).,"History Museum, Roman, Romania",II century
"England, United Kingdom",1837,1172,RIBCHESTER 1837,5,141,161,53.810102,-2.5329994,"5, or possibly up to 8 aurei, from Nero to Diva Faustina I (AD 161). 5 aurei are listed here, and the other 3 ones (Bland/Loriot 343-5) are listed separately as single gold finds.","Harris Museum, Preston (part); Blackburn museum (2 coins)",II century
Poland,1938,13533,WIELGIE,800,161,180,51.336389,18.713056,"Around 800 denarii, among them issues of Trajan, Hadrian and Marcus Aurelius.","Ethnographic Museum, Łódź, Poland (168 coins)",II century
Netherlands,2017,9923,HOLWERD,3,155,160,53.3684,5.901,"3 denarii (Antoninus Pius, 2 Marcus Aurelius Caesar) (AD 145-160).",Private collection,II century
"Israel, Palestinian Territories",1967,8466,IDNA 1967,25,132,136,31.557,34.979,"25 coins? ""Medium-sized hoard. Allegedly Bar Kokhba silver and bronze together with Syrian tetradrachms and Roman denarii"" (Mildenberg 1984, 56).",Dispersed,II century
Ukraine,1907,18301,KIREYEVKA,6,161,180,51.603943197666,32.584704442084,"Hoard of few kilos of denarii. Only 6 coins are known: Hadrian, Antoninus Pius 4, Lucilla.","Local museum, Sosnitski, Ukraine (inv.no. 1447-1452).",II century
Romania,1997,2589,SARMIZEGETUSA 1997,7,121,122,45.513,22.788,7 asses: Domitianus - Hadrianus (AD 121-122).,"Museum of Sarmizegetusa, Romania",II century
Bulgaria,1961,10101,SMIRNENSKI 1961,1481,169,170,43.6297,23.0328,"Unknown initial number of coins. 1,481 denarii: Nero - Marcus Aurelius (AD 169-170).","Regional History Museum, Vratsa, Bulgaria; inv.nos. M I 453-1933",II century
Germany,2019,17474,AMMERN,42,193,193,51.23517,10.45376,"42 denarii, ranging from Nero to Didius Julianus. It is unsure whether three antoniniani (1 Gallienus, 2 Probus) and 1 denarius of Elagabalus were part of the hoard as well.",NA,II century
Germany,1909,18897,FRÖNDENBERG,257,175,176,51.469736702367,7.7699997477814,A hoard of 257 denarii: Republic - Marcus Aurelius (AD 175-176).,"Museum, Dortmund (243 coins); the Ruhr Valley Museum in Schwerte and Fröndenberg (14 coins)",II century
Switzerland,1920,6529,ALLAMAN VD 1920,100,180,183,46.469308639871,6.4005748326422,"A hoard of approximately 100 sestertii, dupondii and asses (Augustus - Commodus), found 500 m east of the village of Allaman, while digging the ground to install phone cables. 58 coins are preserved today (= ca. 60% of the hoard). The coins were heavily worn.","Musée cantonal d'archéologie et d'histoire, Monnaies et Médailles, Lausanne",II century
Germany,1772,16642,JAGSTHAUSEN,4,138,180,49.309513,9.467756,"The hoard (4 coins, Republic - Faustina I/II) was found with around 20 coins in 1772 during the digging of a draw well in front of the castle. - not sure which castle is meant, as there are three of them in Jagsthausen.",NA,II century
Ukraine,1954,18289,MALIEVTSY,8,161,180,48.993493454437,26.985042192515,"Hoard of an unknown number of denarii. According to some incriptions the issuers were Antoninus Pius and Marcus Aurelius (ANTONINVS PIVS, ANTONINVS ARMENIACVS). Six or eight denarii were noticed.",Collection G.M. Lazarev,II century
Romania,1974,6156,HERTIOANA DE JOS,76,179,179,46.639,27.026,76 denarii found with a ceramic vessel: Otho - Marcus Aurelius (AD 179).,County Museum Bacău,II century
Poland,2009,13511,SŁOCHY ANNOPOLSKIE,53,134,138,52.394772,22.834857,"Around 70-80 denarii, 53 were recovered: Republic - Hadrian (AD 117-138).",NA,II century
Egypt,1931,18824,DIMAI 1931/1932,9,136,137,29.5334745,30.668916,"A hoard of 9 Alexandrian tetradrachms (Nero - Hadrian), found in house E.",NA,II century
Ukraine,2017,20697,TURBIV,1100,193,193,49.3426478661,28.7255613137,"A hoard of ca. 1100 Roman imperial denarii: Trajan - Didius Julianus (AD 193) was allegedly discovered by a treasure hunter in the late 2010s near the town of Turbiv in the Vinnytsia region. The coins had a strong degree of wear. This information cannot be verified, as neither the coins themselves nor their photographs are available. The further fate of the hoard is unknown.",NA,II century
Sweden,1901,15533,KÄRNA-KÄNNE 1901,2,186,186,57.245327,18.508032,Two denarii of Commodus (AD 186); silver weight: 4.66 g.,"Swedish History Museum, Stockholm (inv.no. 11470)",II century
Bulgaria,1965,3011,SEIDOL,103,197,198,43.402,26.51,103 denari: Vitellius - Septimius Severus (AD 197-198); silver weight: 262.8-420.7 g.,"History Museum, Razgrad, Bulgaria; inv.no. IF, hoard 12 (103 coins).",II century
France,1875,7068,SAINT-MARD,30,138,161,49.041,2.702,The hoard comprised a broken ceramic vessel containing 30 bronze coins of Antoninus Pius. A bronze bell was found at the same findspot.,NA,II century
Belarus,1993,17430,MALYECH,408,193,194,52.493064,24.738335,"The hoard was discovered in 1993 by Vasily Prigodich (excavator operator), during the digging in a chalk quarry (between the villages of Malyech and Kabaki). The coins were in a hand made pot. In total, the hoard contained 408 (or 409?) coins, but to study preserved only 383 denarii (Vespasian-Septimius Severus) and four barbarian imitations of denarii.",National Historical Museum of Republic of Belarus,II century
Serbia,1946,2781,GROCKA,149,168,180,44.67,20.717,"149 silver coins: 1 republican denarius, 147 imperial denarii, 1 drachm: Mark Antony - Marcus Aurelius (AD 168)","National Museum Belgrade, Serbia (149 coins) - 1981",II century
Belarus,1900,17422,SLONIM,44,180,192,53.0869,25.3163,"The hoard discovered no later than 1900; the total number of coins is unknown. A city dweller with the surname Shapiro bought 44 coins (Vespasian-Commodus; total weight 127.43 g), of which only eight were identified in the Imperial Archaeological Commission (by E. Pridik) and then were returned to the owner.",former Shapiro's collection; currently unknown,II century
Belgium,1934,8250,GRAND-LEEZ,17,186,187,50.582,4.767,17 sestertii: Antoninus Pius - Commodus (AD 186-187),"Collection L. Eloy, Namur, Belgium (14 coins), in 1966",II century
France,1909,5684,LA FEUILLIE,100,161,180,49.462537,1.5140229,The hoard comprised 'a vessel containing 100 sestertii': Antoninus Pius - Marcus Aurelius (AD 161-180).,NA,II century
France,1830,5485,LE BUIS,80,180,192,46.029,1.188,More than 80 gold coins were discovered as surface finds between 1830 and 1958: Domitian - Commodus (AD 180-192). Only seven of the coins were described sufficiently well to be accurately identified.,NA,II century
Germany,1986,16632,ROTTWEIL 1986,5,118,118,48.165388,8.628033,"5 denarii (Vespasian - Hadrian) found together in Rottweil, in the south of the Roman city (Parzelle 969/3, Firma Mahle).",NA,II century
"England, United Kingdom",2000,719,"PLANTATION PLACE, FENCHURCH STREET",43,174,174,51.503293,-0.085155684,"This hoard of 43 aurei, ranging from Nero to Marcus Aurelius, was discovered in June 2000 during the archaeological excavation at Plantation Place, Fenchurch Street, in the City of London. The coins were discovered in situ within a uniform context of silty brick-earth with organic inclusions. The absence of coins of Commodus suggests a deposition date probably no later than AD 180.",NA,II century
Poland,1875,16201,MACIEJOWICE,32,193,193,52.046747,22.575385,Unknown original number of denarii. 32 denarii have been studied: Vespasian - Septimius Severus (AD 193).,NA,II century
France,1963,5495,BORDEAUX 1963,86,197,197,44.838,-0.579,"The hoard comprised 86 sestertii from Vespasian to Septimius Severus, although the author proposes a deposition date in the reign of Postumus.",NA,II century
Slovakia,1836,8235,PODHÁJSKA-BELEK,21,161,180,48.105157,18.351571,21 denarii: Vespasian - Marcus Aurelius (AD 161-180).,NA,II century
Poland,1948,13520,SWARYCZÓW,95,193,193,50.6453,23.5737,Around 100 denarii found with a ceramic vessel. 95 coins provide information on issuers: Vespasian - Pertinax (AD 193).,NA,II century
"England, United Kingdom",1877,533,HANDLEY,639,194,196,50.961423,-2.0156118,"A hoard of ca. 639 Roman denarii, found in a 'crock' at Upwood Farm, near Handley, while digging up an allotment garden in 1877. A list of 571 coins (by emperor only, see NC 1950, pp. 311-312) was made by Dr. Blackmore who himself received 464 coins of the hoard. His list is as follows: Marcus Antonius 20, Nero 2, Galba 2, Otho 4, Vitellius 3, Vespasian 60, Titus 5, Domitian 31, Nerva 19, Trajan 55, Hadrian 78, Sabina 4, Aelius 4. Pius 79, Faustian I 44, Marcus Aurelius 63, Faustian II 23, Verus 14, Lucilla 13, Commodus 36, Crispina 5, Didius Iulianus 1, Severus 1, and Domna 1. What remains of these 464 coins is now preserved in the Dorchester Museum, but only 440 coins were catalogued by Roberston (NC 1950). These are all denarii (Mark Antony - Julia Domna), except for one Lycian drachm of Trajan.","County Museum, Dorchester (part)",II century
Ukraine,2015,18633,VYRIVKA,60,193,194,51.275537342248,33.138629431399,"60 denarii found, probably, with a ceramic vessel: Trajan - Septimius Severus (AD 193-194).",NA,II century
Spain,1913,12891,SALVATIERRA DE MIÑO,40,138,161,42.0805,-8.5037,40 bronze coins were discovered with a ceramic vessel. Only 24 have provided some information: Nero - Antoninus Pius (AD 138-161).,Lost,II century
Egypt,1900,7789,TELL UMM EL-BREIGAT A47,14,138,161,29.1078,30.7665,"14 Alexandrian coins: 13 tetradrachms, 1 drachm: Nero - Antoninus Pius (AD 138-161). Found during excavations.","Museum of Anthropology of the University of California, Berkeley, USA (1935)",II century
Bulgaria,1947,10303,ALFATAR 1947,52,138,161,43.9459,27.2859,Unknown number of denarii. V. Haralanov studied 52 pieces: Hadrian - Antoninus Pius (AD 138-161).,NA,II century
Sweden,1888,15585,HAVOR,121,194,195,57.191204,18.313522,121 denarii: Vespasian - Septimius Severus (AD 194-195); silver weight: 322.18 g.,"Swedish History Museum, Stockholm (inv.no. 8404)",II century
Italy,1970,13870,MACERATA FELTRIA,38,180,182,43.803108,12.442751,38 bronze coins found in a small sewer found as one block: Vespasian - Commodus (AD,"Museo Archeologico Nazionale, Ancona, Italy (inv.nos. 8957 /30869; 8961/30873; 8963/30875-8964/30876; 8971/30883-9004/30916)",II century
Austria,1915,6152,ERLAUF,64,161,180,48.184375922476,15.184988407286,64 denarii from Vespasian to Marcus Aurelius (AD 161-180).,NA,II century
"England, United Kingdom",1926,390,MALLERSTANG,138,137,138,54.395078,-2.3095346,"A hoard of 138 denarii (Galba - Hadrian), found at Sleddle Mouth, Mallerstang Edge, concealed in a hole in the ground and covered by a flat stone.",Carlisle Museum and Art Gallery (part); British Museum (part),II century
Ukraine,2023,20720,CHERKASY REGION 2023,4,193,193,49.2575505642,31.3370139893,"A small hoard of 4 Roman imperial denarii: Marcus Aurelius - Didius Julianus (AD 193) was discovered by a treasure hunter in early July 2023 somewhere in Cherkasy region. Information about the find and photos of the coins were published on the Ukrainian treasure hunter forum Violity July 3, 2023. The finder reported that the coins were discovered “in one small pit”. The further fate of the hoard is unknown.",NA,II century
Hungary,1995,18525,KECSKEMÉT-HETÉNYEGYHÁZA,48,192,192,46.944394750045,19.610492607613,Forty-eight Roman denarii were found with a ceramic vessel in the rubble of a Sarmatian house in 1995 in the area of ​​an Avar burial ground in Hetényegyháza.,NA,II century
Bulgaria,1980,10251,BABOVO 1980-1985 A,1600,138,161,43.9815,26.3013,1600 denarii found in a ceramic vessel - metal detecting - within an ancient settlement. The latest coins are from Antoninus Pius (AD 138-161).,NA,II century
Poland,1956,13536,WILKÓW,100,193,193,50.770833,23.765278,Circa 150 denarii. 100 were studied: Hadrian - Pertinax (AD 193).,NA,II century
"England, United Kingdom",2006,655,DYMOCK 2006,2,118,118,51.985693,-2.4236931,2 denarii of Hadrian,NA,II century
India,1948,18421,KADMAT ISLAND,15,180,180,12.309827874573,72.847331259132,"15 Roman gold coins described in the Madras Museum Accessions Register as 'purchases through individuals through the Collector of Canara'. It is unclear whether rhey represent a genuine hoard. Possible part of the cache of Roman coins dating from the first and second centuries A.D. was reportedly discovered some 600 kms. further to the north, on Kadmat Island in the neighbouring Laccadives group (Indian Union Territory of Lakshadweep) during 1948",Madras Museum Accessions Register,II century
"England, United Kingdom",1974,14931,PIERCEBRIDGE III,10,164,169,54.529849,-1.6770182,"10 coins found compacted together during excavations in Tofts Field in 1974. Recovered from surface of first re-metalling of Dere Street, to the east of the later fort, in Tofts Field.",NA,II century
Switzerland,2001,6446,AUGST BL-INS. 28 2001,10,183,185,47.531,7.723,"Found during excavations. Assemblage of 10 aes coins, Domitian to Commodus, in a roadside ditch, spread out over ca. 5x1 metres. The hoard comprised 3 dupondii and 7 asses.",NA,II century
"England, United Kingdom",2006,14578,BEMBRIDGE 2006,8,164,169,50.697133,-1.0951936,Three coins found together by a detectorist and recorded by M. Lyne. Details from HER.,NA,II century
Romania,2005,16021,MANGALIA 2005,15,134,138,43.8148,28.5605,Hoard of 15 imperial denarii found with a jug in an inhumation grave: Nero - Hadrian (AD 134-138).,NA,II century
Ukraine,2014,20688,UMAN - NEAR,126,193,193,48.7489649875,30.2217663866,"Hoard of 126 Roman imperial denarii was discovered by a treasure hunter on the outskirts of Uman in mid-November 2014. Information about the discovery of the treasure and a photo of 53 coins were published on November 16, 2014, on the Ukrainian treasure-hunting forum Violity. The finder reported that the treasure was found on November 13, 2014, in the forest on the outskirts of Uman. The coins were dispersed over a small area, and on the first day of the search, four treasure hunters managed to find 62 coins. On the second day, the search was continued by three treasure hunters, they found an additional 32 coins. On November 18, 2015, the same informant reported that a total of 126 coins had been discovered. The further fate of the coins is unknown.",NA,II century
"Wales, United Kingdom",1940,1785,PRESTEIGNE,33,166,166,52.264002,-2.997143,"At least 33 denarii (Vespasian to Marcus Aurelius) found in 1940 by gardeners engaged in converting a tennis court into a vegetable patch. Pye reports that the hoard was contained in a pot with a tile lid, since lost, and that one of the finders removed at least 27 of the coins, none of which were recovered. Four further reports of coins from Corton House appear in the Transactions of the Radnorshire Society over succeeding years; whether these were new discoveries at/near the same site or part of the original find is unclear. The original size of the hoard is, therefore, uncertain, and is likely to have been larger than the 33 denarii detailed here.",Radnorshire Museum (11 coins),II century
Sweden,1867,15548,HALLEGÅRDA 1867 1,312,193,194,57.506418,18.496685,"Originally 312 denarii, 299 preserved: Nero - Septimius Severus (AD 193-194); silver weight: 758.24 g. (299 coins).","Swedish History Museum, Stockholm (inv.no. 3701)",II century
Spain,1614,6153,GUADARRAMA,200,161,180,40.6731798,-4.0875528,200 aurei: Galba - Marcus Aurelius (AD 161-180).,NA,II century
Poland,1865,13555,WROCŁAW-POŁUDNIE,5,161,169,51.045701,16.916551,"Unknown number of coins found during construction work. Only five denarii are known: Republic, Vitellius, Antoninus Pius (2), Lucius Verus.",Before World War II some of the coins from the hoard were kept in the collections of the St. Elisabeth Gymnasium in Wrocław (Sankt Elisabet- Gymnasium in Breslau). Lost,II century
Bulgaria,1980,10256,KOSHARNA 1,1000,138,161,43.8828,26.2975,1000 denarii found in a ceramic vessel - metal detecting - in an ancient building. The latest coins belong to Antoninus Pius.,NA,II century
Sweden,1902,15598,SJONHEMS BACKE,3,148,149,57.492523,18.500372,"3 denarii: Titus, Antoninus Pius, Antoninus Pius (Marcus Aurelius Caesar) (AD 148-149); silver weight: 7.90 g.","Swedish History Museum, Stockholm (inv.no. 11721)",II century
Ukraine,2014,20683,CHERNIVTSI REGION 2014,500,180,192,48.2498156192,25.7921321256,"A hoard of ca. 500 (?) Roman imperial denarii was discovered by treasure hunters in February 2014 in Chernivtsi region. Information about the find and a general photo of two part of the coins was published on the Ukrainian treasure hunter forum Violity on December 27, 2014. According to the finders, the coins were found in a field, on an area of 5x5 meters, together with a silver buckle (only the frame of the buckle is preserved). The search for the coins lasted for two days. This field, according to the informants, was quite popular among local treasure hunters. Some of the coins from the hoard found on the second day were stuck together. There are two general photos of the coins: one shows at least 60 denarii, the other at least 71 (there are also photos of this part of the hoard on a scale, together with the silver buckle: 336.5 g). These photos were published by different treasure hunters, so they most likely represent different parts of the hoard. I managed to identify only a small part of the coins in the photos: 13 coins in the first photo and 13 coins in the second photo. The further fate of the coins is unknown.",NA,II century
"Israel, Palestinian Territories",1993,8053,CAVE OF THE SANDAL 1993 B,7,125,128,31.873432962438,35.431284221019,"The hoard(?) comprised a ""cluster"" of 7 silver coins - 4 denarii, 1 plated denarius, 1 drachm - deposited during the Second Jewish Revolt (AD 132-136).",NA,II century
Netherlands,1997,9841,ALPHEN AAN DEN RIJN 1997,5,180,180,52.12795,4.660886,"1 silver + 4 bronze coins: (1st century -2nd century AD), Augustus - Commodus (AD 192) found during archaeological excavations.",Municipality Alphen aan den Rijn,II century
Switzerland,1826,6430,SCHLEITHEIM SH 1826-1908,7,106,106,47.742,8.478,"The hoard comprised 7 aurei terminating in an issue of Trajan dating to AD 106. From 1826 to 1908, 7 Roman aurei were found by chance in the fields, all in the same region (Salzbrunnen and Z'underst Wyler), at a maximum distance of ca. 150 meters. These could be single finds or rather a dispersed hoard? Found in 1826: Nerva; 1859: Nero; 1894: Vespasian; 1896: Trajan; 1899: Nerva; 1907: Galba; 1908: Trajan.",Kantonsarchäologie Schaffhausen (4 coins); Schweizerisches Landesmuseum Zürich (2 coins); Bernisches Historisches Museum (1 coin),II century
"England, United Kingdom",1995,1685,DIDCOT,126,159,160,51.606624,-1.2793979,"The hoard of 126 gold aurei contained within the fragmentary remains of a small pot was discovered while searching with a metal detector on land near Didcot, Oxfordshire, in April 1995. Coins range from Nero to Marcus Aurelius Caesar.",British Museum,II century
Greece,1998,6909,DION 1998,81,138,161,40.17724,22.49293,"81 bronze coins (72 Dium, 3 Thessalonica, 1 koinon of Macedonia, 1 Philippi, 1 koinon of Thessaly, 3 Roman bronzes) ranging from Domitian to Antoninus Pius, found in the foundation level besides the east wall of the first (western) room excavated at the place of the former sanctuary of Zeus Olympios, next to two other hoards (Dion 1999 and Dion 2000). All three hoards were buried in clay vases. The exact function of the area where the hoards were found is unclear, but the hellenistic sanctuary of Zeus Olympios had been transformed in Roman times, the wall of the temenos built over, and a theatre established.",NA,II century
France,1876,6297,SAINT-NIZIER-LE-BOUCHOUX,5,180,192,46.459,5.151,"The hoard comprised 5 sestertii, dupondii or asses from Tiberius to Commodus and was found in association with a key handle, an incense burner, two statues (one being of Mercury) and a statue base. The remains of a Roman building, the function of which was undetermined, was found close by.",NA,II century
Netherlands,2003,10007,SCHAIJK 2003,17,117,138,51.7462,5.6317,"17 bronze coins: 3 dupondii, 15 asses: Vespasian - Hadrian (AD 117-138).",Private collection,II century
Bulgaria,1974,2685,PLEVEN 1974,3040,161,180,43.417,24.607,(3043) denarii: Nero - Marcus Aurelius (AD 161-180),"Regional History Museum, Pleven, Bulgaria; inv. nos. 1453 1-349; 1466 1-8; 1468 1-25; 1470 1-352",II century
Sweden,1873,15589,MYRUNGS,9,161,180,57.274902,18.419228,9 denarii: Hadrian - Marcus Aurelius (AD 161-180),Lost,II century
Poland,1993,13700,PRUSZCZ GDAŃSKI 2,5,192,192,54.259404,18.650407,"Funerary deposit of 5 denarii in a Late Roman grave: Trajan - Commodus (AD 192). In the same grave were found: a bronze brooch, an iron brooch, an iron bracket, one thorn, an iron firesteel and two knives.","Archaeological Museum Gdańsk, Poland",II century
"England, United Kingdom",1976,1264,LONDONTHORPE,420,153,161,52.922199,-0.60328385,"A hoard of 420 denarii, ranging from Mark Antony to Antoninus Pius, found near Alma Wood, Londonthorpe, together with fragments of the base of a small grey flagon which judging from its size and the marks of corrosion on the inside had originally contained the whole hoard. –A.J. White, in Lincs. Hist. and Arch., 12 (1977), 81; 13 (1978), 85",British Museum (part); Lincoln City and County Museum (part); Belton Trust (part); rest returned to finder,II century
Spain,1940,12879,LUGO 1940,16,117,117,43.0064,-7.5576,"16 coins: 1 denarius, 15 bronzes were found as ""cast bronze core"" of 570g.",NA,II century
Greece,1987,6891,SEVASTI 1987 GRAVE 5,14,169,180,40.359,22.544,"14 coins ranging from Trajan to Marcus Aurelius (1 denarius of Trajan; 11 provincial coins: Dium, Koinon of Macedonia, Stobi; 2 uncertain), found in grave 5 in Sevasti.","Archaeological museum, Thessaloniki",II century
Lithuania,1943,15454,NOREIŠIAI,5,138,161,55.714077,23.029578,"Circa 150 coins found with a ceramic vessel. Only 5 sestertii are known: Hadrian 1, Antoninus Pius 1, Faustina I (Diva) 1, 2 uncertain issuer.","Museum ""Ausra"" Šiauliai, Lithuania",II century
Ukraine,2017,20710,HAVRYSHIVKA,60,180,192,49.244565218300004,28.6362297299,"A hoard of at least 60 Roman imperial denarii: Vespasian – Commodus (AD 180-192) was discovered by a treasure hunter in the late 2010s. The hoard was found in a forest, the coins were collected from an area of 10x10 m (slightly higher was another area of 30x40 m where several coins were also found). 60 coins were collected by treasure hunters during six trips. A fragment of an iron Roman sword blade was found 200 m from the hoard. The coins have a rather bad condition (heavy wear). The further fate of the coins is unknown.",NA,II century
Romania,1970,16269,STRUNGA 1970,12,125,128,47.164718,26.957566,12 denarii entered the collection of the Pedagogic High-School in Iași: Vitellius – Hadrian (AD 125-128). Part of the hoards Strunga I and II.,"Pedagogic High-School, Iași, Romania (12 coins).",II century
Germany,1866,17251,OSTFRIESLAND/IM OSNABRÜCKISCHEN,4,168,169,53.0533,7.7609,"Three aurei are said to have been found by Landrat von Weyhe. These might be the remnants of a gold hoard. Apparently, there was another aureus found at the place.","Münzkabinett, Berlin (in 1920) (inv.nos. 560-563).",II century
India,1786,18500,NELLORE,40,141,141,14.45,79.99,"About 40 aurei were found by a peasant while he was digging, he also found a Hindu temple. This is the earliest recorded find of Roman coins on Indian soil. The hoard seems to have consisted exclusively of second-century coins.",NA,II century
Ukraine,2017,20695,IVANO-FRANKIVSK - NEAR,385,161,180,48.9173843564,24.704766,"A hoard of at least 385 Roman imperial denarii: Nero - Marcus Aurelius (AD 161-180) was allegedly discovered in the late 2010s in the vicinity of Ivano-Frankivsk. The hoard contained mostly coins of ""early mintages"", and the latest ones date back to the time of Antoninus Pius and Marcus Aurelius (10-15 such coins in total). No further information.",NA,II century
Austria,1850,6150,EBERSTALLZEL,2,138,161,48.044,13.981,Hoard of unknown number of bronze coins. 1 coin of Antoninus Pius and 1 of Faustina I (Augusta/Diva) were seen.,NA,II century
Bulgaria,1948,10292,RAZGRAD 1948,2,117,138,43.521,26.555,Unknown number of silver coins. One denarius of Trajan and one of Hadrian are kept in the museum in Ruse.,"Ruse Regional Museum of History, Bulgaria; inv.no. 9, 553",II century
Luxembourg,1971,12817,MERTERT,10,177,177,49.7,6.481,10 coins found together in a tomb (purse?): Domitian -Marcus Aurelius (AD 177).,NA,II century
Belgium,1914,6166,MELDEN,200,166,166,50.814,3.564,(200) 17 sestertii: Trajan - Marcus Aurelius (AD 11-180).,NA,II century
Greece,2006,6862,"LITHOCHORI, KAVALA (T11)",4,138,161,41.04825,24.70468,"The hoard comprised 4 coins including one earlier coin of Thasos (2nd c. BC) and two Roman Provincial coins: Philippoi (1 imperial period), Topeiros (1 Antoninus Pius) and a further 1 unidentified coin, found in grave T11 in Lithochori.",NA,II century
Austria,1855,6175,UNTERSBERG,80,161,180,47.735,12.971,83 bronze coins and (silver coins?) found in a marble rock. There is some information on 28 coins: Mark Antony - Marcus Aurelius (AD 161-180). The three denarii may not belong to this hoard (Dembski 1977).,"Museum Carolino Augusteum, Salzburg, Austria (26 coins); Prähistorischen Staatssammlung, München, Germany (3 coins?)",II century
Sweden,1927,15524,GANDARVE 1927,130,190,191,57.1941,18.3966,130 denarii: Vespasian - Commodus (AD 190-191); silver weight: 360.44 g. Together with the coins were found two bronze rings.,"Swedish History Museum, Stockholm (inv.no. 18666)",II century
Sweden,1891,15540,ROVIDE 1891,10,186,187,57.474746,18.199331,10 denarii found on a field: Trajan - Commodus (AD 186-187); silver weight: 26.87 g.,"Swedish History Museum, Stockholm (inv.no. 8931)",II century
Romania,1935,16296,HORODIȘTEA,600,161,180,48.23833,26.727458,"Around 600 silver and bronze coins found with a ceramic vessel. Only 10 denarii were identified. The hoard was lost during WWII: Vespasian 5, Domitian 1, Trajan 1, Antoninus Pius 2, Marcus Aurelius 1.","School Museum, Brăești, Romania. Today, lost.",II century
"England, United Kingdom",2011,2066,CHARLWOOD,23,141,161,51.164247,-0.25656181,"2 Iron Age gold quarter-staters, 18 denarii and 1 quinarius to Antoninus Pius and 6 copper-alloy votive objects.",NA,II century
"England, United Kingdom",1973,14861,HOUGH,3,161,176,53.037427,-2.4488502,"The Cheshire HER lists ""A small hoard comprising a silver denarius of Faustina II (AD 176), two unidentified Roman bronze coins and a bronze dolphin-type booch datable to 1st to 2nd century AD"".",NA,II century
France,1982,5670,CANTELEU,60,193,193,49.451,1.036,"The hoard comprised 'approximately 60 sestertii, mostly illegible. 10 identifiable examples were of Antoninus Pius, Faustina (I or II), Commodus and perhaps, Didius Julianus' Archives of Musée de Rouen. Communication by Mme. Aubin (28.11.1982)",NA,II century
"England, United Kingdom",1977,2353,WALTHAM ST. LAWRENCE,198,141,161,51.48616,-0.83482841,"The hoard of 175 gold and silver Iron Age coins, and 23 Roman denarii, ranging from from c. 50 BC to the latter half of the second century AD, uncovered on a field at Waltham St. Lawrence.",British Museum (part),II century
France,1906,6064,BUJALEF,250,138,161,45.795283,1.626992,The hoard comprised approximately 250 sestertii dating to the second century AD and weighing between 5 and 6kg.,NA,II century
France,1896,7126,ANOST,6,169,169,47.065,4.113,The hoard comprised 4 copper-alloy statues and 2 copper-alloy vessels. One of the copper-alloy vessels contained 6 bronze coins of Marcus Aurelius and Divus Lucius Verus. One coin was lost.,NA,II century
Belgium,1873,3241,FONTAINE-VALMONT 1873,400,117,138,50.318,4.216,(c. 400) 3 denarii: Nero - Hadrian (AD 117-138).,"Archaeological Museum Charleroi, Belgium 13 coins, only 5 retrieved)",II century
Germany,1978,17028,PFUNGSTADT,8,103,111,49.79474,8.55554,"A Roman arm purse was found on a field, southwest of Hahn (today in the district of Pfungstadt), in the vicinity of the Hofgut Grabenbruch. The purse contained 8 Roman denarii, ranging from Galba to Trajan.",NA,II century
Poland,1939,13460,KRZYWNICA,7,172,192,53.429167,15.192222,Hoard of unknown number of denarii. Only for 7 cois is given Information on the issuers: Antoninus Pius - Marcus Aurelius/Commodus (AD 172-192).,Lost,II century
Libya,1939,16369,BENGASI 1939,1750,114,116,32.1206,20.0602,"The hoard originally comprised ca. 1,750 Greek/Roman republican/imperial/provincial silver and bronze coins ranging from 270 BC to the reign of Trajan (116 AD). 570 of them are know kept in the Shahat Archaeological Museum while further 84 specimens have been identified through photographic documentation.","شحات Shahat, Archaeological Museum",II century
Slovenia,1965,2846,ŽUŽEMBERK,17,125,138,45.831066,14.930185,The hoard comprises 17 asses from Vespasian to Hadrian (AD 117-138).,"Dolenjski muzej Novo Mesto, Slovenia",II century
Poland,1926,13529,TUREK - SURROUNDINGS,600,180,192,52.017532,18.494011,Around 600 denarii of which only 17 provide information on issuers: Vespasian - Commodus (AD 180-192).,"Archaeological Museum, Łodz, Poland (3 coins)",II century
Sweden,1878,15596,ÖJVIDE 1878 1,52,186,187,57.417458,18.238764,52 denarii: Vespasian - Commodus (AD 186-187); silver weight: 135.15 g.,"Swedish History Museum, Stockholm (inv.no. 6210)",II century
Algeria,1948,4942,TIPASA 1948-1950,86,143,143,36.618,2.391,The hoard comprised 86 denarii from Mark Antony to Antoninus Pius (AD 143).,NA,II century
Poland,1942,13428,GNOJNO-PIASKI,3,139,139,50.601386,20.849637,"Large hoard of Roman denarii found in two ceramic vessels. Only 3 have provided some information on the issuers: Trajan 2, Antoninus Pius (Marcus Aurelius caesar) 1.",2 coins in private collectionin 1958; lost,II century
"Russia, Ukraine",1871,18344,KERCH 1871,500,242,24,45.357,36.468,"Hoard of 500 coins of the Bosporan kings: Ininthimeus, Rhescuporis IV and V.",NA,II century
Austria,1960,2849,ILLMITZ,157,162,163,47.762,16.8,157 coins found in a ceramic vessel: Mark Antony - Marcus Aurelius (AD 162-163).,"Landesmuseum Burgenland, Eisenstadt, Austria; inv.no. 24.929",II century
Romania,1980,16280,HOMICENI 1980-1987,666,140,140,47.017521,26.65374,"666 coins: 665 denarii, 1 drachm: Nero – Antoninus Pius (AD 140).",NA,II century
Israel,1963,7281,MASADA 1963-1965 B,13,107,110,31.3158,35.3534,The hoard comprised 13 provincial tetradrachms dated between AD 60-61 and AD 107-110.,NA,II century
"Syria, Turkey",1890,5435,DIYARBAKIR (MARDIN),302,161,180,37.3068,40.7483,"A large hoard of gold coins (ca. 8 kg), found 40 km south of Mardin in 1890. Gnecchi also reports gold ingots, though Regling doubts this. The hoard was dispersed, but 302 aurei (Nero - Marcus Aurelius) have been published by Regling.","Arkeoloji Müzeleri, Istanbul (part, 302 coins)",II century
Georgia,1930,16059,NOSIRI,18,138,161,42.260933,42.116558,"18 Cappadocian silver coins (didrachms, drachms and hemidrachms), sold to the museum of Zugdid by a farmer in the 1930s. The coins range from Vespasian to Antoninus Pius (AD 138-161), with 10 specimens being illegible. The coins were examined by Zograf in 1937.","National Museum Georgia, Tbilisi",II century
Greece,2000,6911,DION 2000,129,138,161,40.17724,22.49293,"129 bronze coins (120 Dium, 4 koinon of Thessaly, 2 Thessalonica, 1 koinon of Macedonia, 1 Ilium and 1 uncertain), ranging from Claudius to Antoninus Pius, found in the foundation level besides the west wall of the first (western) room excavated at the place of the former sanctuary of Zeus Olympios, next to two other hoards (Dion 1998 and Dion 1999). All three hoards were buried in clay vases. The exact function of the area where the hoards were found is unclear, but the hellenistic sanctuary of Zeus Olympios had been transformed in Roman times, the wall of the temenos built over, and a theatre established.",NA,II century
Ukraine,1911,18249,NEKHVOROSHCHA,300,193,193,49.140211131625,34.720577088167,300 denarii found with a ceramic vessel: Trajan - Didius Julianus (Manlia Scantilla) (AD 193).,NA,II century
Denmark,2003,20019,NR. FUGLESANG,5,163,176,55.128596526964,15.136259660944,Five denarii found during survey in small area. Interpreted as small disturbed hoard.,NA,II century
Egypt,1926,5473,KARANIS 1926,60,156,157,29.51973,30.90194,Circa 60 aurei. Disintegrated cloth bag found during excavations in the courtyard of a house.,NA,II century
Israel,2002,8474,ZABAR CAVE,9,132,136,31.466,35.388,The hoard comprised 9 silver coins of the Second Jewish Revolt (AD 132-136).,NA,II century
Germany,1924,16790,TRIER - RUNDBAU G,8,192,192,49.745971558221,6.6416673341937,"The coins were found together, in a burnt layer 25 cm deep under Plattenstraße at Ritona.","Rheinisches Landesmuseum, Trier, Germany (inv.no. F 2562)",II century
Romania,2001,9616,SILISTRA-OSTROV 2,4,143,144,44.113,27.317,4 asses found during excavations: Trajan - Antoninus Pius (AD 143-144).,"Muzeul Dunării de Jos, Călărași, Romania; inv.nos. 45373-45376",II century
Czech Republic,1923,15887,RATBOŘ 1923,2,175,180,49.977945,15.158863,"Group of 2 dupondii: Marcus Aurelius, Faustina II (Diva) (AD 175-180).","Regional museum, Kolín, Czech Republic",II century
Poland,1939,16210,GRABOWNICA STARZEŃSKA,6,161,180,49.659366,22.073807,"Hoard of 6 Roman coins, most likely denarii, including: Vespasian, Antoninus Pius, Marcus Aurelius (AD 161-180).",NA,II century
Poland,1800,13565,SZYMISZÓW - SURROUNDINGS,10,161,176,50.519334,18.246699,10 denarii found within a cemetery together with other objects. The antoninianus (radiate) of Aurelian may be an intruder.,"Initially in the collection of Councilor Scotti, later in the Museum of Wroclaw, Poland; today, lost.",II century
Denmark,1832,13422,BORRESØ,16,190,190,55.118889,14.8975,"Lake Borresø surrounds the medieval castle of Lilleborg. During the draining of the lake in 1832 a mixed gold- and silver hoard was found. ""Some"" gold fingerrings, of which only one was recovered, and ""several"" denarii, of which sixteen were handed over to the later National Museum, were found ""as if packed into something which had now disappeared"".",NA,II century
Denmark,1950,20013,ILLERUP,199,187,188,56.053032,9.932549,"199 denarii found at wetland deposit. Not one hoard, but a collection of several all deposited together. The earliest known contexts for Imperial denarii in Scandinavia are the Illerup weapon sacrifice dated by dendrochronology to c. 210 AD.",NA,II century
Denmark,2009,13124,SØTOFTEGÅRD,11,159,161,55.787,12.311,"Eleven coins found over three private searches; one in 2009, four in 2011 and six in 2012 (described as ""being stacked""). The 11 coins are dated from Nerva to Antoninus Pius. It is not certain that all 11 coins are part of a hoard, but it is likely as they have been found within a small geographical area.",National Museum of Denmark,II century
Germany,1865,17356,ERFURT (AREA OF),60,145,180,50.9787,11.03283,A farmer in 1864 found over 60 specimens of Roman silver coins during plowing on a small hill in the vicinity of Erfurt. 29 coins were described (Trajan - Marcus Aurelius).,NA,II century
Cyprus,1985,18749,PAPHOS - HOUSE OF HERACLES (ORPHEUS) 1985,22,158,159,34.7568,32.4036,"22 bronze coins found together: Obol, prutahs, local, provincial issues: Ptolemy VIII Physcon - Antoninus Pius (AD 158-159).",NA,II century
Hungary,1957,7544,KOMÁROM-SZŐNY 1957,17,128,138,47.73,18.194,"17 silver and bronze coins in Principia/barrack: 1 denarius, 1 quinarius, 2 sestertii, 7 dupondii, 6 asses: Vespasian - Hadrian (AD 128-138)",NA,II century
Israel,1962,7604,JUDAEAN DESERT,24,132,136,31.515,35.274,"The hoard comprised 4 tetradrachms, at least 20 denarii, and ""a large number of bronze"" coins of the Bar Kokhba Revolt (AD 132-135/136).",NA,II century
France,1841,12465,ORVAL,141,177,192,46.7263,2.48,"The hoard was found in April 1841, in an ceramic vessel under a stone. It comprised 140 sestertii, dupondii and 1 as, all from the antonine dynasty.",NA,II century
"Israel, Palestinian Territories",1976,7844,HEBRON 1976,54,132,136,31.533,35.1,The hoard comprised at least 54 silver coins dated between the Roman Republic and Hadrian (AD 117-138).,NA,II century
Germany,1844,17201,MINDEN 1844,300,138,180,52.28953,8.91455,"Several hundred Roman silver coins (coins of Galba - Antoninus Pius / Marcus Aurelius are mentioned), found during building working in Minden, in or before 1844. The coins were lost.",NA,II century
Ukraine,2020,18627,KHMELIVKA,63,194,195,51.249944599302,27.680927316092,63 denarii found by metal detecting: Vespasian - Septimius Severus (AD 194-195).,"Sold; Local museum Olevsk, Ukraine (3 coins)",II century
Spain,2000,17564,BAETULO,33,125,128,41.452387974632,2.2470209493459,33 bronze coins found together in one insula of the former Roman city of Baetulo.,"Museo de Badalona, Spain",II century
Hungary,2009,16617,KOMÁROM-SZŐNY 2009,4,121,122,47.733475,18.156686,"Purse(?) of four sestertii: Trajan 2, Hadrian I 2 (AD 121-122) found near a wall in the area of the civil town.","Klapka György Museum (Komárom), Hungary (inv.nos. 2009. K17.098.1-4)",II century
Netherlands,1989,9959,NEDERWETTEN 1989-1990,287,178,183,51.4918,5.5236,287 bronze coins: Augustus - Marcus Aurelius/Commodus for Crispina (Augusta) (AD 178-183).,NA,II century
Slovenia,1962,8111,PTUJ 1962 - VIČAVA,80,134,138,46.425,15.861,"Over 100 silver and bronze coins. 80 pieces were recovered: 1 denarius, 67 sestertii, 12 dupondii, 1 As: Vespasianus - Hadrian (AD 134-138).","Pokrajinski muzej, Ptuj, Slovenia (80 coins)",II century
Netherlands,1985,10030,VECHTEN 1985,15,138,161,52.058,5.162,"15 sestertii, dupondii, asses: Augustus-Antoninus Pius (AD 138-161).",Private collection,II century
Ukraine,1865,18140,SARNKI GORNYIE,29,180,192,49.175321543768,24.718091378671,Unknown originally number of coins found with a ceramic vessel. Only 29 denarii were documented: Hadrian - Commodus (AD 180-19922).,NA,II century
Georgia,1925,5478,GERZEUL,469,161,169,43.002,41.023,469 (or more?) silver coins of Caesarea in Cappadocia found with a ceramic vessel. These range from Nero to Marcus Aurelius (Lucius Verus) (AD 161-169). The hoard also included one denarius of Augustus and a barbarous imitation of a stater of Lysimachus.,"National Museum of Georgia; National Museum of Abkhazia (91 coins); Pushkin Museum of Fine Arts in Moscow, Russia (104 coins)",II century
Poland,1909,13513,SOPOT,81,161,176,54.441944,18.559722,81 denarii found with a ceramic vessel while building a new house: Otho - Marcus Aurelius (Faustina II) (AD 161-180).,"National Museum of Gdańsk, Poland",II century
Albania,2010,18315,DURRËS 2010,64,161,180,41.317893118999,19.448191178349,64 denarii found in a wall of a glass workshop: Nerva - Marcus Aurelius (AD 161-180).,NA,II century
"Scotland, United Kingdom",1986,1800,NEWSTEAD 1986,4,103,111,55.597622,-2.6998004,"A hoard of four denarii (2 Domitian and 2 Trajan) was found during field-walking in the South Annexe of the fort at Newstead. The coins were recovered in a little roll, with possible traces of a copper/bronze container.",NA,II century
France,1867,6974,PARIS VIE (QUARTIER ODÉON) 1867,66,195,196,48.846,2.337,The hoard comprised 66 sestertii from Domitian to Septimius Severus with a tpq of AD 195 to 196. It was found with a small statue of Mercury.,NA,II century
Germany,1884,16579,MINDELZELL,30,144,161,48.229927000000004,10.447276,"In 1884 a large hoard of Roman bronze coins was found in the area of Mindelzell. 30 specimens arrived in a private collection in Memmingen, of which 12 were later bought by the Memmingen museum. They are now lost.",NA,II century
Romania,1868,16268,LĂPUȘNIC,62,117,138,45.893161,21.920157,"Hoard of at least 62 denarii. Only 13 are known: 8 republican among which Julius Caesar 1, Augustus 3, Hadrian 2.",NA,II century
Russia,1838,18200,MORSHANSKOYE 1838,759,180,192,54.858414366883,20.508979159068,Hoard of 759 bronze coins: Trajan - Commodus (AD 180-192). Uncertain whether is part of MORSHANSKOYE 1838 hoard (?) or a separate one.,NA,II century
Israel,2007,5387,WADI ḤAMAM 2007-2012 B,11,119,120,32.827251361842,35.48938664144,"The hoard comprised 11 bronze coins, dating between AD 79/80 and AD 119/120.",Israel Antiquity Authority (IAA 149385-149395),II century
France,1806,5935,GUÉRANDE 1806,77,117,138,47.33,-2.43,Unknown number of coins. 46 coins of Nerva and 31 of Hadrian were in possession of the antiquarian Fornier.,NA,II century
Croatia,1878,16528,VIS,9,162,163,43.045875,16.153868,"9 bronze coins from Trajan to Marcus Aurelius, most likely a part of a larger find.",Apollonio Zanella collection on Vis (uncertain).,II century
Belgium,1994,8535,TAINTIGNIES,15,180,192,50.547,3.34,15 sestertii: Domitian - Commodus (AD 180-192).,NA,II century
Georgia,1954,18182,TSEBELDA,6,139,139,43.0253,41.2836,"Six silver coins minted in Caesarea of Cappadocia: Nerva, Trajan 2, Hadrian 2, Antoninus Pius. According to Pachomov they are coming from a destroyed burial ground. a plausible hypothesis as Kropotkin (2005) mentioned other similar coins found in graves (p. 267; nos. 1927, 1928, 1944).","National Museum of History, Moscow, Russia (inv.no. 84974)",II century
Sweden,1852,15605,SUDERBYS,55,193,194,57.575285,18.214324,"Originally, 55 denarii, 12 preserved: Trajan - Clodius Albinus (AD 193); silver weight: 32.07 g. Two silver rings were found together.","Swedish History Museum, Stockholm (inv.no. 1853)",II century
Italy,1988,17460,TINDARI,13,166,166,38.1421,15.0444,"13 bronze coins: 9 sestertii, 4 asses: Domitian - Marcus Aurelius Aurelius (AD 166).","Antiquarium, Villa Romana di Patti",II century
Switzerland,1967,6447,AUGST BL-INS. 20 1967,36,191,192,47.534,7.725,"The hoard comprised 36 coins including 33 sestertii (1 subferratus) and 3 dupondii terminating with issues of AD 191-192. All coins are worn, so this is most probably a 3rd c. deposition.",Augusta Raurica,II century
Sweden,1873,15601,SUDERGARDA,2,145,175,57.809651,18.526683,"2 denarii: Trajan, Antoninus Pius/Marcus Aurelius (Faustina II).","Swedish History Museum, Stockholm (inv.no. 5071)",II century
Egypt,1972,7798,LUXOR A56,188,161,169,25.714492955795,32.656456837895,More than 188 billon provincial coins of Alexandria: Nero - Marcus Aurelius (Lucius Verus) (AD 161-169). 'Found at Avenue of the Sphinxes during clearance excavations.',"Museum, Luxor, Egypt",II century
Portugal,1954,5476,BRAGA AREA,170,167,168,41.545,-8.427,The hoard comprised 171 aurei and 1 denarius from Nero to Marcus Aurelius.,"União de Bancos Portugueses. Fundação Millenium, Oporto, Romania",II century
Italy,1903,13873,MONTE CUORE,272,119,122,45.683015,8.767807,272 coins found with a ceramic vessel: Claudius I - Hadrian (AD 119-122).,NA,II century
Tunisia,1960,5364,EL KSOUR,2000,138,161,35.898,8.881,"From information obtained by Khaled Ben Rhomdane, the hoard comprised 2000 Republican denarii, although there is some suggestion that there were also imperial denarii including issues of Antoninus Pius. The hoard was stolen.",Stolen,II century
"England, United Kingdom",1990,2284,DOWNTON,16,154,155,50.988123,-1.7449252,8 Roman bronze coins to Antoninus Pius plus 8 Durotrigan cast bronze coins,NA,II century
Romania,2004,2588,ILIŞUA,33,125,128,47.211,24.096,33 denarii: Republic - Hadrian (AD 125-128),"County Museum of Bistrița-Năsăud, Bistrița, Romania; Inv.no. MB 20918-20950",II century
Romania,2002,16476,GRĂDIȘTEA DE MUNTE - ”DEALUL PRIHODIȘTII”,80,102,103,45.6198,23.2706,"160 denarii, 80 recovered: 41 republican, 39 imperial: Republic - Trajan (AD 102-103).","National Museum of Union, Alba Iulia, Romania",II century
Poland,1937,5266,PRZEWODÓW,150,186,187,50.47,23.934,"Few hundreds, 150 were documented: Republic - Commodus (AD 186-187).","National Museum, Krakow, Poland (20 coins)",II century
Israel,2002,8472,HAR YSHAI CAVE,8,132,136,31.452225076871,35.384799336223,The hoard comprised 8 bronze coins of the Second Jewish Revolt (AD 132-136) found with traces of a leather bag.,NA,II century
Italy,1942,13806,DONORI,53,161,180,39.432425,9.126029,53 large Roman imperial bronze coins (sestertii?): Vespasian - Marcus Aurelius (AD 161-180).,NA,II century
France,1908,7330,VICHY 1908,65,138,161,46.128,3.418,"The find comprised 65 coins of Hadrian and Antoninus Pius, 7 copper-alloy figurines, a stone figurine of Sucellus, some copper-alloy and glass plates, a scythe, some knives, an amphora, moulded glazed cups, bells, an incense burner, a triangular stone pediment and some carbonised cereals.",NA,II century
Ukraine,2015,18614,NOVA USHYTSIA,68,193,196,48.8294,27.2393,"68 coins: 67 denarii, 1 imitation: Vespasian - Septimius Severus (Julia Domna) (AD 193-196). Weight: 156 g.",Private collection,II century
Netherlands,1908,12619,HEES 1908,18,161,180,51.8423,5.8299,18 bronze coins: Augustus - Marcus Aurelius,NA,II century
Ukraine,1942,2975,LUKOSHCHINO,1000,193,196,49.489816919667,34.589097179753,"Hoard of around 1,000 silver coins: 999 denarii, 1 drachm: Nero - Septimius Severus (Julia Domna) (AD 193-211).","Poltava Local History Museum (954 specimens; inv.nos. 4919-4920, 5090)",II century
Israel,2006,7729,SHU'AFAT 2006 C,30,113,114,31.814,35.234,The hoard comprised 26 bronze coins dated between 175-164 BC and AD 113-114 with four intruding coins.,Israel Antiquities Authority (IAA 113031-60),II century
Switzerland,1841,6574,MATZENDORF SO 1841,47,124,125,47.31,7.629,"47 denarii ranging from Nero to Hadrian (1 Nero, 3 Vespasian, 4 Titus, 6 Domitian, 3 Nerva, 20 Trajan, 10 Hadrian) were given to the Historisches Museum in Olten by the Schmid family in 1901/1902, next to 13 other Roman coins. Records say that all of these belonged to a find made in the vicinity of Matzendorf in 1841, but probably only the denarii are part of a hoard. No further details of the discovery are known.","Historisches Museum, Olten",II century
Netherlands,1889,9905,GRONINGEN 1889,8,187,188,53.232,6.563,8 sestertii: Antoninus Pius - Commodus (AD 191-192).,Groninger Museum (GRM find X) 1964/XII-63/1-7 en 63a (no. 7),II century
France,1845,5882,FOUGEROLLES-DU-PLESSIS,150,180,192,48.475,-0.981,"The hoard comprised '100s of bronze coins (150 coins according to Angot). The majority were of Trajan, Hadrian and of Antoninus Pius. In the 1860s, the vicar of Fougerolles, Charles Pointeau, examined 72 coins and Chevallier acquired 'a good number, all large bronzes of Trajan to Commodus'. It has therefore been assumed that this hoard was made up of sestertii.",NA,II century
Germany,1929,17009,KASTELL SAALBURG 1929,8,161,161,50.27146,8.56672,"A roll of eight corroded and partly worn AE coins (Trajan to Lucius Verus), found within the group of furnaces north of the west gate (inside the Roman fort), in front of the furnace 5",NA,II century
Bulgaria,1968,10104,VRATSA 1968,38,180,192,43.2102375,23.5528803,"Unknown number of antoniniani, among, those of Aurelian and Severina.","Regional History Museum, Vratsa, Bulgaria; inv.nos. M III 6197-6234 (38 coins)",II century
Russia,2011,18551,PIMENOVO,184,193,193,51.703503285151,35.958439681993,"Unknown original number of coins. 184 denarii of which two imitations: Vespasian - Didius Julian (AD 193). Found together with a ""belt set of one massive silver buckle for a sword belt and two buckles for a girdle. The find also contains eighty-four silver belt plaits. This belt set, dating to the latter half of the 5th century AD (phase D2 of the Great Migration Period), is a girdle for bladed weaponry.""","The State Museum of Military History and Natural Preserve “The Kulikovo Polye”, Tula, Russia (inv.no. BX 1823/1-184)",II century
Bulgaria,1895,10500,YAGNILO 1895,250,161,180,43.382,27.3238,2500-3000 denarii. 250 pieces were bought by the National Museum in Sofia: Vespasian - Marcus Aurelius (AD 161-180).,"National History Museum, Sofia (250 coins)",II century
Greece,1953,6845,AMPHIPOLIS 1953,23,177,192,40.82442,23.84618,"A hoard of 5+ Roman provincial coins (Thessalonica: 1; Amphipolis: 4, Marcus Aurelius and Commodus), found in a grave in Amphipolis (Grave 1) in 1953. Archives in the Ephorate mention 18 further coins, but these could not be traced any more.","Archaeological Museum, Kavala",II century
Bulgaria,1928,2674,GIGEN 1928,22,105,107,43.709,24.477,"(circa 400) 22 denarii: 2 republican, 20 imperial: Republic - Trajan (AD 105-107)",NA,II century
Poland,1881,13652,GDAŃSK KRAKOWIEC,15,180,192,54.36048,18.737041,"15 sestertii of which Antoninus Pius 1, Faustina II 1, Commodus 1 were found by fishermen in a dune.",Lost,II century
Romania,1942,16302,ONICENI,68,161,180,46.806005,27.1614,Unknown originally number of coins. 68 denarii are kept in the collection of the Library of the Romanian Academy: Republic – Marcus Aurelius (AD 161-180).,"Coin Room, Library of the Romanian Academy, Bucharest, Romania (inv.nos. 29069-29136)",II century
Poland,1925,13527,TOKARY,433,193,194,50.803333,22.638889,Hoard of circa 600-700 denarii. 433 pieces were studied: Trajan - Septimius Severus (AD 193-194).,NA,II century
Sweden,1896,15469,ROBBENARVE,368,193,194,57.333194,18.573239,"Initially 368 denarii, nowadays, 367: Vitellius - Septimius Severus (AD 193-194); silver weight: 1009.47 g.","The National Historical Museum, Stockholm (inv.no. 10155/1-167, 169-368); Stockholm Numismatic Institute, Stockholm (inv.no. 179)",II century
Romania,2000,17849,PRISACA HILL,44,102,102,45.6875,23.2102,A hoard of an unknown originally number of coins found by metal detecting. 44 coins were recovered: Republic - Trajan (AD 102).,"National Museum of Union, Alba Iulia, Romania",II century
Hungary,1925,5233,TISZANAGYRÉV,62,134,138,46.946,20.144,62 denarii: Nero - Hadrian (AD 134-138).,"Magyar Nemzeti Múzeum, Budapest, in 1925",II century
Croatia,1937,16156,ČITLUK,108,179,180,43.7421,16.6542,"102 sestertii, 5 dupondii and 1 as ranging from Domitian to Marcus Aurelius (AD 179-180). Hoard was originally larger.","Sink, Franciskan monastery; dispersed",II century
Poland,1905,13469,ŁÓDŹ - SURROUNDINGS,300,161,162,51.776667,19.454722,Hoard of 300 denarii found with a vessel. 130 pieces are known: Antoninus Pius - Marcus Aurelius (AD 161-180).,"At the beginning of the 20th century, in the collection of the industrialist Hertig in Łódź.",II century
Austria,1846,6171,SACHSENGANG,700,161,180,48.174,16.585,"700 aurei and denarii found with a pot, probably ending with coins of Marcus Aurelius (AD 161-180).",lost,II century
Romania,1956,16316,COTU,15,189,189,45.596952,26.856054,"20 denarii, 15 studied: Trajan – Commodus (AD 189).",NA,II century
Israel,1952,7690,WADI MURABBA'AT,227,119,122,31.588,35.373,"The hoard comprised at least 227 silver coins: 119 Nabatean denarii, 14 provincial tetradrachms of Antioch, 5 didrachms reattributed to Antioch (Trajan), 5 tridrachms and 33 drachms of Trjan reattributed to an Arabian mint, and 51 imperial denarii, down to AD 122.","Israel Antiquities Authority (108), Ecole Biblique, Amman Museum",II century
Romania,1959,16298,TĂCUTA,4,170,175,46.911161,27.685553,"Four denarii, pressumably belonging to a hoard, found at the same place at different dates. ”The scientific literature has falsely perpetuated the locality of Mircești (situated 5 km to the west) as the place of origin for the coins.”",NA,II century
Italy,1951,13869,GUALDO TADINO,99,180,192,43.230932,12.784817,99 denarii: Otho - Commodus (AD 182-183).,"Museo Archeologico Nazionale, Ancona, Italy (inv. nos. 7395/22336 - 7493/22434)",II century
Spain,1893,17599,TOBARRA,29,161,169,38.591413565845,-1.6892830792003,"29 aurei including coins of Trajan, Hadrian, Sabina, Antoninus Pius, Lucius Verus. Together were found two gold fingerings.",NA,II century
Poland,1891,13444,JEŻÓW,100,145,161,51.813265,19.968837,"Around 100 denarii, among them, one of Antoninus Pius for Faustina II. No further details.",NA,II century
Romania,1956,2615,LUJERDIU,278,194,195,46.9831,23.7274,278 denarii found with an small amphora: Trajan - Septimius Severus (AD 194-195).,"National History Museum of Transylvania, Cluj-Napoca; Town Museum Gherla (20 coins), Romania",II century
"England, United Kingdom",2008,1830,OSWESTRY AREA I,100,172,176,52.863042,-3.0263448,"100 denarii found in June 2008 (Oswestry Area I), followed by a further 23 denarii found in September 2008 (Oswestry Area II), both up to Marcus Aurelius. These were regarded as two separate groups, even if the date range is similar.",British Museum (part),II century
Spain,1856,17572,DEHESA DE ABAJO,125,103,117,37.692566667214,-6.3162086039794,Hoard of 125 denarii. The large majority belong to Trajan including the title DACICVS. The hoard was found with two silver vessels embedded each other.,NA,II century
Greece,1987,6890,SEVASTI 1987 GRAVE 12,23,177,192,40.359,22.544,"23 coins (2 denarii; 21 provincial coins: Dium, Thessalonica, Koinon of Macedonia) found in grave 12 in Sevasti.","Archaeological museum, Thessaloniki",II century
Bulgaria,1967,2675,CHERVENA VODA 1967,900,119,119,43.806,26.102,"(ca. 900) 889 denarii: 46 republican, 843 imperial: Republic - Hadrian (AD 125-128). Found in two vessels.","Regional Museum of Russe, Bulgaria; inv.no. 1618 (889 coins)",II century
Israel,2003,7726,AKKO-PTOLEMAIS 2003,46,118,118,32.924304526069,35.083627726053,The hoard comprised 46 tetradrachms dated between AD 60/1 and AD 118.,Israel Antiquities Authority (IAA 106202-106247),II century
Sweden,1867,15606,TUNA,2,175,180,57.452731,18.405704,"2 denarii: Titus, Marcus Aurelius (Diva Faustina II); silver weight: 4.80 g. Together were found: loop of gold bracteate, 2 gold bands, 3 bronze pins, bronze sword (in miniature), 1 small bronze ring, various bronze fragments.","Swedish History Museum, Stockholm (inv.no. 3740)",II century
Egypt,1901,7809,MALLAWI A67,800,180,192,27.733,30.84,c. 800 aurei: Hadrian - Commodus (AD 180-192). No further information given.,Probably dispersed,II century
Ukraine,1846,18281,KRASEYEV,2281,180,192,49.056716421455,25.027127813983,"A large hoard of 2,218 coins: Vespasian - Commodus. No further information.",Lost,II century
Switzerland,1656,6656,NEUCHÂTEL NE 1656,2,117,138,46.996,6.938,"Three coins of Hadrian found in a tomb (1 aureus and 2 denarii), but the information does not look trustworthy and the coins are not preserved.",No coins preserved,II century
Austria,1908,13138,KRISTENDORF 2 1908,361,180,192,46.554,14.648,"Over 361 silver and bronze coins were found in five ceramic vessels. Only 191 coins were documented: 157 sestertii, 24 denarii were studied: Vespasian - Commodus (AD 180-192).",private collections (unknown number and location),II century
Armenia,1955,17473,GAṘNI [ԳԱՌՆԻ] 1955,48,185,191,40.1195,44.723,"A hoard of 48 denarii, ranging from Vespasian to Commodus, discovered in the fortress of Gaṙni in 1955.",History Museum of Armenia,II century
France,2003,17414,REIMS - SURROUNDINGS,200,197,197,49.253915,4.033809,Unknown originally number of coins. Circa 200 sestertii were seen From Flavians to Septimius Severus (AD 197). Only 29 were available for study.,NA,II century
Hungary,1959,5257,SZOMBATHELY 1959 B,978,176,180,47.231,16.622,(1006) 978 denarii: Vitellius - Marcus Aurelius (AD 177).,NA,II century
Ukraine,2010,18634,ZHULYCHY,90,195,197,49.8722,24.8866,"Unknown originally number of coins, around 160-200 denarii. Only 90 were documented: Otho - Clodius Albinus (AD 195-197).",NA,II century
Romania,1935,16277,COSTIȘA,43,147,148,46.756907,26.646749,"Unknown originally number of coins. 43 denarii are kept at the town museum in Piatra Neamț, Romania: Republic – Antoninus Pius (AD 147-148).","Town museum, Piatra Neamț, Romania (43 coins)",II century
Bulgaria,1980,10252,BABOVO 1980-1985 B,180,101,199,43.981,26.3009,160-180 denarii found in a ceramic vessel - metal detecting - within an ancient settlement. The coins are dated to the 1st-2nd centuries AD.,NA,II century
Italy,1951,13872,ALTINO 1951,514,180,192,45.5469,12.3993,514 imperial bronze coins: Nerva - Commodus (AD 180-192).,"Collection J. Marcello, Soprintendenza Archeologica di Padova, Italy",II century
"Wales, United Kingdom",1948,40,LALESTON,2,138,161,51.498808,-3.6148871,"Two denarii of Antoninus Pius, the first 'found on the Laleston by-pass road behind (SE. of) the Mackworth Inn', the second 'found during road widening on the Cardiff-Swansea road, near the A.A. Box west of Laleston'. One might suspect that both coins came from the same hoard, scattered by workmen somewhere near Laleston.",National Museum of Wales,II century
Spain,1817,12887,CONSTANTINA,47,145,161,37.872594742108,-5.6191516440164,Hoard of 47 Roman aurei documented in the archives of the Real Academia de la Historia - Antonio Delgado Fund: Nero - Antoninus Pius for Faustina II (AD 145-161).,Lost,II century
Serbia,1911,2779,MISAČA,53,156,161,44.359593,20.545705,53 denarii: Galba - Antoninus Pius (AD 156-157).,Zemaljski muzej Bosne i Hercegovine (National Museum of Bosnia and Herzegovina) Sarajevo (32 coins) - 1981,II century
Romania,1932,8937,PLOIEȘTI,12,114,117,44.951,26.015,12 denari: Vespasian - Trajan (AD 114-117).,"Institutul de Arheologie, Bucharest, Romania",II century
Sweden,1870,15587,SINDARVE,1500,193,194,57.24719,18.401563,"Originally, 1,500 denarii and a drachm found with a clay vessel. 1,391 coins preserved: Nero - Septimius Severus (AD 193-194); silver weight: 3,924.6 g. (1.391 coins).","Swedish History Museum, Stockholm (inv.nos. 4391, 4398, 4417)",II century
France,2013,13955,MANDEURE,15,190,191,47.4495,6.7964,15 sestertii as a foundation offering: Trajan - Commodus (AD 190-191).,"Musée monétaire cantonal, Lausanne, Switzerland",II century
Belgium,1850,8531,SAINT-LÉGER 1850 1,2,161,169,50.705682,3.314077,2 aurei of Domitian and Marcus Aurelius (Lucius Verus).,NA,II century
Netherlands,1986,9910,HAPS 1986,64,177,178,51.689,5.862,"64 bronze coins: sestertii, dupondii and asses: Augustus - Marcus Aurelius (AD 177-178).",Private collection / ROB.-Amersfooort,II century
Belgium,1896,8510,MAFFLE,15,180,192,50.617,3.806,15 sestertii found in a grave with ceramic objects: Hadrian - Commodus (AD 180-192).,NA,II century
France,1800,7244,LE VAUMAIN,100,138,161,49.336,1.87,"The hoard comprised 100 Roman coins, including one of Antoninus Pius.",NA,II century
Slovenia,1992,9064,CELJE - SPODNJI GRAD [LOWER CASTLE],4,176,177,46.229,15.261,"4 coins: 1 denarius, 3 sestertii: Vespasian, Hadrian Marcus Aurelius (2)","Pokrajinski muzej Celje, Slovenia",II century
Czech Republic,1922,15896,TUNĚCHODY,2,180,192,49.978838,15.840908,"2 denarii: Antoninus Pius, Commodus (AD 180-192).","Regional museum, Chrudim, Czech Republic (now, missing)",II century
Romania,1966,9379,PRĂJEȘTI,183,193,194,46.654,26.977,Unknown initial number of coins. 183 denarii: Nero - Pescennius Niger (AD 193-194).,"Complexul Muzeal ”Iulian Antonescu” Bacău, Romania",II century
Slovenia,1913,8972,PTUJ 1913,11,138,161,46.42,15.87,Leather purse with 10 bronze rings and 11 bronze coins: Trajan - Antoninus Pius. Only one bronze coin of Antoninus Pius is known.,NA,II century
Bulgaria,1922,3433,SLATINO,361,117,138,42.161562000000004,23.055081,600 denarii. 361 pieces were examined: Republic - Hadrian (AD 117-138); silver weight: 669.3-1389.9 g.,NA,II century
Slovenia,1989,9045,CELJE 4,9,134,138,46.229,15.266,"9 coins: 5 denarii, 4 sestertii: Vespasian - Hadrian (AD 134-138).","Narodni muzej, Numizmatični cabinet, Ljubljana, Slovenia",II century
Sweden,1837,15610,GOTLAND 1837 - UNKNOWN FINDSPOT,5,193,193,57.506233,18.450155,"Originally 5 denarii, 2 preserved: Hadrian, Hadrian (Sabina), Antoninus Pius Antoninus Pius (Faustina I), Didius Julianus (Manlia Scantilla); silver weight: 4.61 g. (2 coins). Not certain that they were found together!","Swedish History Museum, Stockholm (inv.no. 777)",II century
Ukraine,2016,20674,KYIV REGION 2016,291,180,192,50.1812553789,30.2157138996,"A hoard of 291 Roman imperial denarii: Hadrian – Commodus (AD 180-192) and their imitations was found by two treasure hunters in early June 2016 in the Kyiv region. Information about the find and photos of the coins were published by one of the finders on the Ukrainian treasure hunting forum Violity on June 21, 2016. The finder reported that the coins were collected from an area of 3 square meters. The first coins were found at a depth of 10-20 cm, although the pit for their search was dug about 1 m deep. Some coins have traces of bronze oxides. In general, the preservation of coins is good (weak wear). In August 2016, the entire hoard was sold at a Violity auction. The further fate of the coins is unknown.",Sold,II century
Slovenia,1912,8869,STARI TRG,63,145,161,46.4978,15.0847,63 denarii found within the ruins of a Roman house: Galba - Antoninus Pius (AD 145-161). The silver link found with the coins may suggest a bag as the container.,Dispersed,II century
Belgium,1948,8534,STRÉPY-BRACQUEGNIES,6,147,175,50.4727,4.1226,6 sestertii: Domitian - Antoninus Pius/Marcus Aurelius for Faustina II (AD 145-175).,NA,II century
France,1990,7029,BEAUMONT-SUR-OISE 1990,10,180,192,49.142,2.285,The hoard comprised 10 sestertii from Trajan to Commodus with a tpq of AD 190. TAF interprets the hoard as being a purse drop.,NA,II century
Germany,1955,16590,HEIDELBERG-HANDSCHUHSHEIM,10,161,176,49.428761,8.68533,In 1955 during ground work at a cemetery children randomly found a Roman hoard with a large quantity of coins. All coins except for the 10 described here (sestertii ranging from Vespasian to Marcus Aurelius) were dispersed. The true size of the hoard is unknown.,NA,II century
Belarus,2011,17427,BACHANTSY,163,193,193,53.11707,24.464,The hoard was discovered near the village in 2011. Consisted of 13 denarii (Trajan-Pertinax). The circumstances of the find and the place of the coins storage are unknown.,private collection,II century
Germany,1987,16716,WALHEIM 1987,18,163,164,49.012909,9.152548,"A mixed hoard of 18 coins (Vitellius - Diva Faustina II) was unearthed in the southern area of the civilian town. The date of the latest coin is given as AD 145/161 in FMRD, but the reference of that coin (RIC 1383) is dated to AD 163-164.",NA,II century
Romania,1937,16255,PARAVA 1937,270,183,184,46.3097,26.9822,270 denarii found with a ceramic vessel: Nero - Commodus (AD 183-184).,"National History Museum, Bucharest, Romania (inv.nos. 182811-183080)",II century
"England, United Kingdom",1934,54,CHALFONT ST GILES,53,145,161,51.618303,-0.58589283,"In 1934, 40 denarii and 12 sestertii were found with an urn in a field north of Narcott Lane. The coins range from Vespasian to Antoninus Pius.",NA,II century
Austria,1964,13144,DORNHOF,79,134,138,46.774,14.331,"79 coins: 6 denarii, 45 sestertii, 16 dupondii, 12 asses found with shreds from the ceramic vessel: Galba - Hadrian (AD 117-138).","Kärnten Landesmuseum, Klagenfurt, Austria",II century
Netherlands,2005,9935,LEEUWARDEN,2,117,138,53.2007,5.8,2 denarii of Trajan and Hadrian.,NA,II century
Georgia,1941,16037,MTSKHETA – ARMAZI 1941 2,7,161,180,41.839326,44.663171,"Seven aurei found in grave no. 7: Nero 2, Antoninus Pius, Faustina I, Marcus Aurelius 2, Faustina II (AD 161-180).","National Museum of Georgia, Tbilisi",II century
Israel,1992,7740,AVDAT 1992,5,113,113,30.794,34.772,The hoard comprised 5 drachms of Trajan minted in Bostra (AD 113).,Israel Antiquity Authority (IAA 61417-61429; 61422),II century
Romania,2016,16473,GÂRCINA 2016,84,166,166,46.984012,26.353247,84 silver coins found with a ceramic vessel; Trajan - Marcus Aurelius (AD 166); weight: 281 g.,"Muzeului de Istorie și Arheologie, Piatra-Neamț, Romania",II century
Israel,1996,8178,KHIRBET RAFI'A,185,132,136,31.617751398573,34.90567870145,"The hoard comprised 185 coins, deposited during the Second Jewish Revolt (AD 132-136).",NA,II century
Sweden,1964,15594,UGGÅRDA,2,189,189,57.174807,18.432183,"2 denarii: Commodus, 1 imitation of Marcus Aurelius; silver weight: 5.06 g.","Swedish History Museum, Stockholm (inv.no. 27518)",II century
"Scotland, United Kingdom",2009,965,BELLADRUM,41,161,161,57.4448,-4.4626,41 denarii: Domitian - Marcus Aurelius (Divus Antoninus Pius) (AD 161),NA,II century
Bulgaria,1960,12143,RAKOVSKI 1960,11,161,180,42.2875,24.9652,11 denarii: Trajan - Marcus Aurelius (AD 161-180).,"Museum of Archaeology, Plovdiv, Bulgaria; inv.no. 2206",II century
Spain,1616,17597,PUERTO DE GUADARRAMA,200,163,176,40.711438095987,-4.1424342282235,"200 aurei, only 6 were available for study: Galba, Trajan, Hadrian, Marcus Aurelius, Faustina II, Lucius Verus.",NA,II century
Ukraine,2017,20692,MYRONIVKA - SURROUNDINGS,310,180,192,49.6600029739,30.981220057,"A hoard of 310 Roman imperial denarii (from Trajan to Commodus) and their barbarian imitations was discovered by treasure hunters in November 2017 in the Kyiv region. Information about the find and the first 104 coins were published on November 29, 2017, on the Ukrainian treasure hunting forum Violity, followed by the next 117 coins on December 6, 2017. The hoard was discovered by four treasure hunters in a ploughed field and appears to have been partially ploughed (the coins were collected from a relatively large area). A total of 310 coins were found, which were divided among the finders (two of the treasure hunters did not publish photos of their coins). The coins were in a hand-made vessel, a significant part of which has been preserved. A silver buckle, a bronze brooch, an iron knife with a bone handle and a “spinning wheel-like thing” (probably a knife tip?) were also found with the coins (all artefacts are specific for the Chernyakhiv culture). The coins are very poorly preserved (heavily worn). One of the coins was pierced, another had a plugged hole. The further fate of the coins is unknown.",NA,II century
Poland,1873,13648,DYMNIK,2,161,180,53.975007,19.484146,"Two denarii: Trajan, Marcus Aurelius.",Lost,II century
Hungary,1943,2984,MISKOLC - SURROUNDINGS,115,193,194,48.1328,20.8048,115 denarii: Vespasian - Septimius Severus (AD 193-194); silver weight: 354 g,"County Museum, Miskolc, Hungary; dispersed",II century
Germany,1884,17186,HALSMÜHLEN,3,161,175,52.949537,9.2356,"Three denarii (Nerva - Faustina II), found with others on a field in Halsmühlen.",NA,II century
Netherlands,2004,9993,RAALTE 2004 1,2,117,138,52.3796,6.2727,2 denarii of Hadrian (AD 117-138).,NA,II century
Denmark,2001,13421,HELLERNE,7,183,184,55.707992,12.29287,Seven denarii found through several rounds of detecting.,NA,II century
Germany,1906,16588,NÖRDLINGEN 1906,7,141,161,48.851261,10.486183,"This hoard was found in a Roman building. It consisted of 7 denarii, ranging from the late Republic to Antoninus Pius. The coins lay stratified in a roll and the find appears to be complete.",NA,II century
Austria,1985,13137,CARNUNTUM 1985,6,161,161,48.111,16.86,"6 denarii, probably, part of a larger hoard: Antoninus Pius 3, Faustina I (Diva) 1, Antoninus Pius (Divus) 2",lost,II century
Poland,2015,18538,WTÓREK 2015,39,180,192,51.638072540174,17.887858048589,"Hoard of 39 denarii, 26 glass and amber beads, several fragmentary specimens, and fragments of metal ornaments, including two silver brooches: Vespasian - Commodus. ""Denarii are dated to the second half of the 1st century – the end of 2nd century AD, dating of the brooches, however, indicates that the hoard was deposited in the second half of the 5th century AD.""","Regional Museum, Kalisz, Poland",II century
Poland,1832,13499,REKOWO,29,193,194,54.083611,17.440556,29 denarii: Otho - Septimius Severus (AD 193-194).,"Museum of Cultural History Stralsund, Germany (26 coins); Museum Szeczin, Poland (3 coins)",II century
Czech Republic,1881,15961,POŠTORNÁ,4,141,160,48.74849,16.869859,"4 denarii: Vitellius, Nerva, Trajan, Antoninus Pius (Diva Faustina I) (AD 141-160).",NA,II century
"England, United Kingdom",1826,53,CASTLETHORPE,55,161,169,52.079589,-0.83403465,"A hoard found in a field south of Castlethorpe, comprising 20 denarii and 35 bronze coins, up to Lucius Verus.",NA,II century
Germany,1788,17297,DÖRPSTEDT,20,145,176,54.435033,9.361487,"A hoard of 20+ Roman silver coins (i.e. certainly denarii), found while digging out peat on the Dörpstedter Moor.",NA,II century
Romania,1968,6135,ODOBEȘTI,22,139,139,45.768,26.931,Unknown initial number of coins. 22 denarii: Republic - Antoninus Pius (AD 139),"National History Museum of Romania, Bucharest",II century
Ukraine,1963,18230,MATYUSHI,60,180,192,49.771863118348,29.895308910639,Hoard of circa 60 denarii: Nero - Commodus (AD 180-192). Only 18 denarii were documented.,"Local museum, Bila Tserka, Ukraine",II century
Poland,1877,13448,KALISZ - SURROUNDINGS,2000,190,190,51.7625,18.089722,"Around 2,000 denarii found on the surface after the river outflow. Only 8 denarii were known: Trajan 2, Hadrian 1, Faustina I 3, Commodus 2.",Lost,II century
France,1842,5776,DAMVILLE,5,162,163,48.87,1.073,"The hoard was found in a heap of stones without any obvious container and comprised 'some Roman gold coins. There is some debate over the number of coins found. According to Chassant, there were 5, but Leclerc de Pulligny suggests there was 'a multitude'. Pulligny also mentions a coin of Lucius Verus, but this is not recorded amongst the coins examined by Chassant. Found in a pile of stones with no obvious container.",Miard,II century
Ukraine,1952,2998,POGORELOYE,450,194,195,48.632949622777,29.956543778457,"Hoard of 450 denarii found with a ceramic vessel covered by another pot: Vespasian - Septimius Severus (Clodius Albinus Caesar) (AD 194-195). Weight: 983 g. According to Kropotkin, the hoard ends with the coin of Clodius Albinus as all the coins of Septimius Severus are issues of AD 193-194.","Local History Museum, Uman, Ukraine (inv. nos. 1675/2760 et 2355/3440)",II century
"England, United Kingdom",1725,61,WYCOMBE (WEST WYCOMBE?),4,161,162,51.638691,-0.80202257,"Two coins of Antoninus Pius, one Marcus Aurelius and one of Hadrian found in 1725, as part of a large 'parcel' of coins.",NA,II century
Austria,1989,5433,WIEN - RENNWEG 1989,1268,136,138,48.193,16.392,"1,268 coins: 7 aurei, 1,261 denarii: Republic - Hadrian (AD 136-138). Total weight: 4,023.93g.","Historischen Museum der Stadt Wien (Karlsplatz), Austria",II century
"Wales, United Kingdom",1875,809,BRYN GWYDION,46,140,143,53.05468,-4.322564,"46 denarii (Vitellius to Antoninus Pius) discovered in a farm yard. Wynn Williams (1875) observed that the hoard was discovered at ground level, having been exposed by traffic and other activity in the farm yard: ""The surface was very hard, and they were actually sticking out of the ground on their edges. Judging from a pen and ink sketch sent me, they must have been closely packed together side by side... evidently the road had got scraped and worn down by wheels, and thus exposed them; but they had been noticed before any one took the trouble to pick them up.""",Unknonwn,II century
Turkey,1985,5474,MANYAS,2469,145,160,40.04,27.96,"2469 denarii and provincial silver of which only 210 were recorded - Otho to Antoninus Pius (208 denarii, 2 drachms of Amisus of Hadrian and Antoninus Pius)","Museum of Anatolian Civilisations, Ankara; Balıkesir museum",II century
Poland,1935,13517,STARE PRAŻUCHY 1935,27,180,192,51.888597,18.3275,Unknown initial number of denarii. 27 coins provide information on issuers: Nerva - Commodus (AD 180-192).,"Archaeological Museum, Łódź, Poland (27 coins)",II century
Slovakia,1929,8239,HRIŇOVÁ,5,138,143,48.5747,19.5228,"14 denarii found with ceramic vessel of which only 5 are known today: Trajan 2, Hadrian 1, Hadrian (Antoninus Pius Caesar) 1, Antoninus Pius 1 (AD 140-143).",NA,II century
Moldova,1922,16483,LARGA,21,193,196,48.369695,26.83742,21 denarii: Galba - Septimius Severus (Julia Domna) (AD 193-196).,"Coin Room, Library of the Romanian Academy, Bucharest, Romania (inv.nos. 14845-14865 - in 1944)",II century
Belarus,2007,17426,STAVISHCHE,500,196,195,52.187255,23.68248,"Discovered in 2007 in a field, near a village, between the village and the Lyasnaya river; the coins were scattered over an area of 500x100 m and had two large concentrations (two hoards?). Included at least 500 denarii, of which only 20 are available for study (Vespasian-Clodius Albinus). Information about the hoard in 2009 came to the archaeologist V. Belyavets, and in the spring of 2010 V. Sidarovich examined the place of the find. In the same field, other items were found: fragments of silver brooches, a gold brooch, a spearhead, a gold ring (?). Their relation with the hoard is doubtful (items from the settlement?)",private collection,II century
"England, United Kingdom",1991,14775,"ROWLER MANOR ROMAN VILLA, CROUGHTON 1991",6,164,169,52.010812,-1.2146461,"Roman settlement at Rowler Manor Estate first recorded in 1991 during archaeological watching brief, when Roman pottery & two coin hoards were recovered. Later investigation revealed stone building remains & 4th C. mosaic floor. APs suggest this just one of many buildings in much larger complex over 5ha in extent.During work in 1991, 6 sestertii found as small hoard, initially by detectorists. Coins stuck together in a column after probably being kept in a narrow textile wrapping/bag. Coins from Trajan to Lucilla.Guest, P. 2008. The Roman coins. In M. Dawson Excavation of the Roman villa and mosaic at Rowler Manor, Croughton, Northamptonshire. Northamptonshire Archaeol. 35: 45-93. Hoard identified by Curteis 2003.",NA,II century
Greece,2000,6842,STROVOLOS 2000,19,161,192,40.7756,23.7895,"A hoard of 19 provincial coins, found in grave T7 in the roman cemetery excavated at Strovolos. The coins are not described, but ill. pl. 18-19. They comprised 3 pseudo-autonomous coins of Thessalonica, 15 coins of Amphipolis from the Antonine period and 1 that remains to be identified.",NA,II century
Russia,1911,18545,MELNIKOVO,185,180,192,54.864035623922,20.475340416076,Unknown original number of sestertii: Titus - Commodus (AD 180-192).,"Town museum, Kaliningrad, Russia (inv.no. КГОМ 1.18842/1-119); Archive Rudau (in 1911) (inv.no. Rudau_wNL_SH_1_3-150_2, Rudau_wNL_SH_1_3-148_1, Rudau_wNL_SH_1_3-150_1)",II century
Spain,1722,17601,MÁLAGA 1722,87,180,192,36.720081568035,-4.4200438239111,Hoard of 87 aurei: Nero - Commodus (AD 180-192).,NA,II century
Poland,1830,13413,CZERWIĘCINO,4,141,161,54.066172,15.805078,At least 4 denarii found on a field: Hadrian - Antoninus Pius (Diva Faustina I).,"Kulturhistorisches Museum Stralsund (4 coins), Germany (inv.no. 1962:240a-d)",II century
Denmark,1857,13599,UDMARKEN C,7,180,192,55.104643,14.727234,"Udmarken on Bornholm has yielded three hoards with a total of 217 denarii. All three, A, B, C, have been interpreted as being of either the same hoard or of chronologically identical hoards. A and B were found a week apart in 1853 and C was found in 1857. Udmarken C contains seven of the 217 denarii.",NA,II century
Bulgaria,1982,2689,BREGARE,18,180,183,43.595,24.33,(10kg?) 18 denarii: Domitian - Commodus (AD 180-183).,NA,II century
Romania,1975,16282,ONCEȘTI,48,138,161,46.471796,27.256309,48 denarii found with a ceramic vessel: Vespasian – Antoninus Pius (Faustina I/Diva Faustina I) (AD 138-161).,"History and Art Museum, Bacău, Romania",II century
Algeria,1952,4868,ARZEW,4,161,180,35.855,-0.314,"A hoard of sestertii of which 4 pieces are known: Hadrian, Antoninus Pius, Faustina II and Lucilla.",NA,II century
Bulgaria,1914,2783,MEDOVNITSA,27,161,180,43.655,22.779,27 denarii: Vespasian - Marcus Aurelius (AD 161-180).,NA,II century
Czech Republic,2002,19995,RATENICE 2002-2003,6,138,161,50.092361,15.059173,Group of six denarii found on the same area of an ancient settlement (?): Mark Antony - Antoninus Pius (AD 138-161/post). Similar structure with RATENICE 2002,"Private collection (acc. nos. PS 61, 97/2002)",II century
Serbia,1955,2782,NEMENIKUĆE,474,161,168,44.491243,20.574302,(c. 3000-3500) 474 denarii: Mark Antony - Marcus Aurelius (AD 168),"Narional Museum Belgrade, Serbia",II century
"Israel, Palestinian Territories",1982,8515,HEBRON 1982,53,132,136,31.533,35.1,The hoard comprised a few tetradrachms and approximately 50 denarii from the Second Jewish Revolt (AD 132-136).,NA,II century
"Israel, Palestinian Territories",1953,18784,QUMRAN 1953,10,134,135,31.741,35.459,10 coins found in the bottom of a bowl in locus 29.,NA,II century
Czech Republic,1862,15875,FOLMAVA,3,117,138,49.349112,12.856193,"Unknown number of Roman bronze coins, only 3 pieces are known: Augustus, Nero, Hadrian",NA,II century
Poland,2005,13683,ŁANIEWO,2,185,185,54.098294,20.446941,"Two denarii found on a field: Antoninus Pius, Commodus (AD 185).",Private collection,II century
Sweden,1887,15522,GYLE,2,141,161,57.426478,18.613831,"Grup of two denarii: Antoninus Pius, Antoninus Pius (Diva Faustina I); silver weight: 5.32 g.","Swedish History Museum, Stockholm (inv.no. 8217)",II century
Romania,1946,16300,NEGRI,90,161,169,46.707101,26.978392,Unknown originally number of coins. 90 coins are kept in the collection of the National History Museum in Bucharest: Mark Antony – Marcus Aurelius (Lucius Verus) (AD 161-169).,"National History Museum, Bucharest, Romania (47/1946)",II century
Czech Republic,1921,15874,NEBOVIDY 1921,5,117,138,49.989687000000004,15.216286,"Group of 5 coins: Tiberius (Divus Augustus) as, Claudius I as, Nero 1 denarius, 1 sestertius, Hadrian sestertius (AD 117-138).","Regional museum, Kolín, Czech Republic",II century
Poland,1903,13725,BÓGPOMÓŻ,52,134,138,52.751044,18.980773,"52 denarii of Hadrian of only three RIC types: RIC 119, 256, 339 (AD 134-138). Found together with some bits of amber.",Unknown,II century
Moldova,1903,18178,SEPYA,31,138,161,46.981742354513,29.323675259923,Hoard of 31 denarii. Only one denarius of Antoninus Pius is known.,"Local museum, Cherson, Ukraine",II century
Austria,1926,2848,WALLERN IM BURGENLAND,116,157,158,47.729,16.934,"The hoard comprised 116 silver coins: 111 denarii, 1 denarius serratus, 2 quinarii, 2 drachms: Republic - Antoninus Pius (AD 157-158). Found in a ceramic vessel with a terra sigillata bowl serving as a lid.","Landesmuseum Burgenland, Eisenstadt, Austria (inv.no. 226)",II century
Romania,1965,16286,ARINI,12,178,178,46.34705,27.193651,12 denarii: Republic – Marcus Aurelius (Commodus Augustus) (AD 178). Some doubts have been expressed as the coins are now in a private collection.,Private collection,II century
Algeria,1969,16909,GUELMA 1969,5,114,117,36.4681,7.432,"Unknown number of aurei and silver coins found with a ceramic vessel. Only five aurei were seen: Trajan 4, Trajan for Plotina 1.",NA,II century
Poland,1818,13532,WALINNA,5,138,180,51.829167,22.988611,"Unknown number of denarii. There is information on four coins: Hadrian, Antoninus Pius, Marcus Aurelius (Caesar), Faustina I/II (AD 138-180).",Lost,II century
Ukraine,2021,20646,POLONNE – VICINITY,45,180,192,50.1332963609,27.5019939919,"A hoard of 60 Roman imperial denarii was discovered by a treasure hunter at the end of September 2021: Vespasian – Commodus (AD 180-192). Photos of 45 coins were published on the Ukrainian forum for treasure hunters, Violity. According to the finder, the coins were in a “small pit”, not far from a settlement of the Chernyakhiv culture, on the depth ca. 15-30 cm. At the end of 2021, the coins were sold at the Violity auction.",Sold,II century
Netherlands,1936,9852,BARGER-OOSTERVELD 1936,9,128,130,52.7041,6.9772,9 denarii: Vespasian - Hadrian (AD 128-130).,Private collection,II century
Netherlands,2015,17469,JUKWERD,14,161,180,53.335001605631,6.8467503566873,"A clump of at least 14 denarii molten together. The only reasonably identifiable coin is one of Antoninus Pius for Diva Faustina I, minted between 141 and 161 AD. Another denarius was likely issued under the authority of Marcus Aurelius.",NA,II century
Bulgaria,1955,12279,TVARDITSA,3,117,138,42.7001,25.8989,Three aurei of Hadrian. Only one was seen.,NA,II century
Portugal,1900,12875,BRAGA ?,2,103,111,41.545,-8.427,"Two aurei of Vespasian and Trajan, probably, found in Braga.","Museo Pío XII, Braga, Portugal",II century
"Israel, Palestinian Territories",1997,8179,KHIRBET 'ATUS,22,132,136,32.263689776628,35.437496713421,The hoard comprised 22 denarii overstruck by the Bar Kokhba administration (AD 132-136).,NA,II century
Czech Republic,1890,15881,SV. DOBROTIVÁ,3,138,161,49.74044,13.599445,"Group of 3 denarii: Nerva, Trajan, Antoninus Pius (AD 138-161).","Regional museum, Plzeň, Czech Republic",II century
Israel,1952,7704,TIBERIAS 1952,218,117,119,32.7844,35.5428,The hoard comprised 218 Syrian tetradrachms from the reigns of Nero to Hadrian.,Israel Antiquities Authority (208: IAA 28249-28456),II century
Spain,1907,17598,RANDE,87,161,180,42.2865,-8.6494,"Hoard of circa 86-87 aurei found with a ceramic vessel with a graffiti ""IRENE"": Nero - Marcus Aurelius (AD 161-180).",Dispersed,II century
France,1870,12453,TORTERON,200,177,192,47.0218,2.9666,It comprised 200 sestertii from Antoninus Pius to Commodus (AD 180-192) found with a ceramic vessel.,NA,II century
Lithuania,1912,15458,LILEIKĖNAI,6,138,161,55.461295,22.041097,5-6 silver and bronze coins. Among them one piece of Antoninus Pius.,"Private collection J.Rekasius, Varniai, Lithuania",II century
Lithuania,1938,15444,VERŠVAI,7,161,180,54.928322,23.952113,"7 sestertii: Trajan 2, Hadrian (Sabina) 1, Antoninus Pius (Faustina I) 2, Marcus Aurelius 2 (AD 161-180).","Private collection P. Baleniunas, Kaunas",II century
Belgium,1855,8371,SOLRE-SUR-SAMBRE,10,180,192,50.307,4.158,"(14) 10 coins of unknown denomination: Celtic, Republic, Trajan - Commodus (AD 180-192).",NA,II century
France,1875,7515,CHANTENAY-SAINT-IMBERT 1875,2,177,192,46.733,3.184,"Two medallions (Hadrian, Commodus) were found with a vessel. Together were seven bronze tintinnabula, one patera, and two iron objects.",NA,II century
Poland,1926,13447,KACICE,2,103,111,50.245833,20.031944,"""1 litra"" of coins found with a ceramic vessel. Only 2 denarii are known: Domitian, Trajan.","National Archaeological Museum, Warszaw (2 coins), Poland",II century
Ukraine,1925,18160,KYIV 1925,2,180,192,50.40424302763,30.383959061204,Some silver coins found in a garden. Only one denarius of Hadrian and one of Commodus were documented.,NA,II century
Croatia,1887,2850,PRUGOVAC,77,163,164,45.97,17.12,(c. 260) 77 sestertii: Vespasian - Marcus Aurelius (Lucius Verus) (AD 163-164),"Archaeological Museum Zagreb, Croatia; dispersed",II century
Poland,1946,13402,BESIEKIERZ NAWOJOWY,26,193,196,51.9608,19.4879,Over 26 denarii found with a ceramic vessel: Hadrian - Septimius Severus (Julia Domna) (AD 193-196).,"Museum of Archaeology and Ethnology, Łódź, Poland (2 coins)",II century
Netherlands,2000,10049,WIJNALDUM 2000,2,176,181,53.1953,5.4608,"2 denarii found in mound: Antoninus Pius, Marcus Aurelius/Faustina II (Diva).",Private collection,II century
Ukraine,1882,18236,KRYLOV,2000,161,180,49.0631,33.1808,"Hoard of around 2,000 denarii. 90 denarii entered the University Museum in Kyiv: Nero - Marcus Aurelius (AD 161-180).","University Museum, Kyiv, Ukraine (90 coins)",II century
Netherlands,2005,9936,LEIDEN 2005 1,2,119,120,52.1462,4.5147,"2 silver coins: Titus for Divus Vespasianus, Hadrian.",Private collection,II century
Romania,2009,16516,POIANA,12,160,161,44.222333,28.497993,"12 bronze coins found stuck together, in a barrow: 5 dupondii, 7 asses: Hadrian - Antoninus Pius (AD 160-161).","National History and Archaeology Museum, Constanța, Romania (inv.nos. 81602-81613)",II century
Ukraine,2021,20703,ZHYTOMYR REGION?,50,180,192,50.217031567,28.5974447394,"A hoard of at least 50 Roman Imperial denarii and a silver and gold buckle were discovered by a treasure hunter no later than 2021, probably in Zhytomyr region. Information about the hoard and general photo of the coins with the buckle were published in one of the groups on Facebook, dedicated to treasure hunting on November 1, 2021. One of the group members (Vasyl Ugrynchuk of Volodarsk in Zhitomyr region) reported that the hoard was discovered by his acquaintances (possibly also from Zhytomyr region). On the photo denarii of Trajan, Hadrian, Antoninus Pius, Marcus Aurelius, Commodus can be recognized. The buckle is quite massive (ca. 5-7 cm), on the clip there is a gold plate with ornamentation. The further fate of the hoard is unknown.",NA,II century
Denmark,1906,13126,TESTRUP TEGLVÆRK,9,191,191,56.067,10.134,Eight denarii found at Testrup Teglværk with fragments of a clay pot. One additional denarius was found nearby also with fragments from a clay pot. The finds may represent a series of sacrifices.,National Museum of Denmark,II century
Netherlands,1932,9995,RASQUERT 1932,15,174,175,53.3682,6.517,15 sestertii: Trajan - Marcus Aurelius (AD 174-175).,"Groninger Museum (12 coins), private collection (3 coins)",II century
