country,year_of_discovery,find_spot_id,find_spot_name,total_number_of_coins,terminal_year_earliest,terminal_year_latest,lat,long,summary,disposition,century
Iraq,1983,20613,KIFRIN,3,194,194,34.375849,42.085404,"Three denarii (1 of Trajan and 2 of Septimius Severus that share the same obverse die) from the same context (C/26/34), that may represent a small hoard, found at Kifrin, a large fortified settlement with Parthian and Roman phases of the 2nd and 3rd c. AD, on the east bank of the Euphrates.",Unknown (Bagdad?),II century
France,1870,12453,TORTERON,200,177,192,47.0218,2.9666,It comprised 200 sestertii from Antoninus Pius to Commodus (AD 180-192) found with a ceramic vessel.,NA,II century
France,1836,6335,LYON 1836 2,25,145,145,45.78,4.799,"25 silver denarii were found along with a considerable amount of human bone, interpreted as being an indicator of a battlefield site.",NA,II century
Ukraine,1911,18249,NEKHVOROSHCHA,300,193,193,49.140211131625,34.720577088167,300 denarii found with a ceramic vessel: Trajan - Didius Julianus (Manlia Scantilla) (AD 193).,NA,II century
Ukraine,1935,18258,STOYANOVSKA,18,180,192,50.065053547244,25.354970819182,A hoard of unknown originally number of coins. 18 denarii were documented: Trajan - Commodus (AD 180-192).,"Archaeological Museum, Lodz, Poland",II century
Israel,1971,8158,ASHQELON 1971,21,138,161,31.665,34.5496,21 bronze coins (Vespasian-Hadrian) published in am auction catalogue without details on the circumstances of discovery.,Dispersed,II century
France,1985,5483,SAINT-NOM-LA-BRETÈCHE,9,164,176,48.86,2.02,The hoard comprised 9 aurei from Antoninus Pius to Marcus Aurelius.,NA,II century
Denmark,1853,13598,UDMARKEN B,53,178,192,55.104643,14.727234,"Udmarken on Bornholm has yielded three hoards with a total of 217 denarii. All three, A, B, C, have been interpreted as being of either the same hoard or of chronologically identical hoards. A and B were found a week apart in 1853 and C was found in 1857. Udmarken B contains 53 of the 217 denarii.",NA,II century
Hungary,1919,13136,ZALAHOSSZÚJFALU 1919,171,158,159,46.761,17.103,"171 coins: 169 denarii,1 sestertius, 1 dupondius: Nero - Antoninus Pius (AD 158-159).","Balaton Museum, Keszthely (91 coins); private collection (72 coins), Hungary",II century
France,1977,6965,PARIS IVE (QUARTIER NOTRE-DAME) 1977,6,180,192,48.853143,2.348163,The hoard comprised a burned pottery vessel containing 6 sestertii from Trajan to Commodus.,NA,II century
Greece,1953,6845,AMPHIPOLIS 1953,23,177,192,40.82442,23.84618,"A hoard of 5+ Roman provincial coins (Thessalonica: 1; Amphipolis: 4, Marcus Aurelius and Commodus), found in a grave in Amphipolis (Grave 1) in 1953. Archives in the Ephorate mention 18 further coins, but these could not be traced any more.","Archaeological Museum, Kavala",II century
India,1942,18343,CHAKHERBEDHA,2,190,190,22.006218181787,82.115231532707,Two double pierced coins (aureus - Commodus and an Indian imitation of Marcus Aurelius/Commodus) were found along with modern earring.,NA,II century
Austria,1799,8185,WIEN - RENNWEG 1799,279,161,180,48.193,16.392,"A hoard of 298 aurei dating from Nero to Lucius Verus was discovered in Vienna in 1799 during the construction of the Wiener Neustadt Canal. Of the 298 aurei, 24 were stolen and 274 initially were recovered. There is information for 279 coins: Nero - Marcus Aurelius (AD 161-180). The average weight of the coins was 6.3g.","Münzkabinett, Kunsthistorischen Museum, Vienna, Austria (191 coins)",II century
Romania,2023,20555,GÂRCINA 2023 A,190,117,138,46.975111874256,26.362806809081,Hoard of 190 denarii found with ceramic vessel: Republic (?) - Hadrian.,NA,II century
Ukraine,2020,18627,KHMELIVKA,63,194,195,51.249944599302,27.680927316092,63 denarii found by metal detecting: Vespasian - Septimius Severus (AD 194-195).,"Sold; Local museum Olevsk, Ukraine (3 coins)",II century
Latvia,1888,15431,CESVAINE,2,138,161,56.967965,26.308625,Possibble hoard of unknown number of silver and bronze coins found within a cemetery. The only preserved coins are two denarii of Hadrian and Antoninus Pius.,"Coin Room, National History Museum of Latvia, Riga (inv.nos. LNVM NUM - CVVM 120210: 1-2",II century
"Scotland, United Kingdom",1781,1131,CARSTAIRS,100,138,180,55.6814,-3.6836,"A hoard of about a 100 Roman bronze coins, found on the estate of Carstairs house (= Monteith House). Nero, Trajan, Faustina, Germanicus, M. Aurelius, M. Antoninus are mentioned. To this hoard belonged 13 coins presented to the Society of Antiquaries of Scotland in 1781 (Trajan, Hadrian, the Empress Faustina, and Germanicus, are mentioned; the coin with Germanicus probably refers to an emperor Germanicus in its titles, e.g. Nero, Domitian or Trajan). No coins from this hoard have been located in NMAS, Edinburgh, or in Hunterian Museum, Glasgow. There is, however, in the University archives a letter from Mr. W. Fullerton, Carstairs House, dated 20 Oct. 1781, to Dr. A. Stevenson stating: ""I send you a small box containing a dozen or more bronze medals intended for the College. About a hundred or more of them were found together by some workmen in repairing a road to a miln near this place [i.e. Carstairs House]. {...} They are cheifly [sic] Trajans Hadrian Antoninus Pius two or three Faustinas and one Marcus Aurelius Caesar and several others which from the inscription being much worn out their age cannot be so easily ascertained tho' on comparing them with Vallaint's [Vaillant's] Numismata they seem to be of Domitian. The place where they were found is about a quarter of a mile from an old Roman encampment or station [i.e. the Roman fort at Castledykes] of which part of the vallum remains still partly intire.""",NA,II century
India,2020,19939,RATLAM,17,194,194,23.330942153044,75.036606873163,"Hoard of 17 aurei. Only two are known: Pertinax, Septimius Severus.",NA,II century
Poland,2006,13657,GDAŃSK CHEŁM,2,161,161,54.339952,18.619396,"Two denarii found on a field by chance: Antoninus Pius, Marcus Aurelius for Antoninus Pius (Divus).",Private collection,II century
"Scotland, United Kingdom",1842,1134,SHOTTS,300,177,192,55.8201295,-3.797864,"Several hundreds coins (principally of Nerva, Trajan, Hadrian, Antoninus Pius, and Faustina), found in 1842, while removing some sods from the surface of a piece of moss land. Three publications (see under references) list groups of coins belonging to this hoard. Some coins had marks indicating that the hoard had been buried in a bag of coarse cloth. One further denarius of Trajan in HCC, p. 34, no. 207, Glasgow.",Airdrie Museum (part); Glasgow (part).,II century
France,1830,7249,BEAUVAIS,15,192,192,49.43,2.081,The hoard comprised 15 copper-alloy coins from Hadrian to Commodus and we found next to a skeleton.,NA,II century
Hungary,1802,7487,SZÉKESFEHÉRVÁR 1802,3,145,161,47.186,18.422,"3 coins, unknown denomination: Trajan, Hadrian and Marcus Aurelius (Caesar) (AD 145-161).",NA,II century
"England, United Kingdom",1877,533,HANDLEY,639,194,196,50.961423,-2.0156118,"A hoard of ca. 639 Roman denarii, found in a 'crock' at Upwood Farm, near Handley, while digging up an allotment garden in 1877. A list of 571 coins (by emperor only, see NC 1950, pp. 311-312) was made by Dr. Blackmore who himself received 464 coins of the hoard. His list is as follows: Marcus Antonius 20, Nero 2, Galba 2, Otho 4, Vitellius 3, Vespasian 60, Titus 5, Domitian 31, Nerva 19, Trajan 55, Hadrian 78, Sabina 4, Aelius 4. Pius 79, Faustian I 44, Marcus Aurelius 63, Faustian II 23, Verus 14, Lucilla 13, Commodus 36, Crispina 5, Didius Iulianus 1, Severus 1, and Domna 1. What remains of these 464 coins is now preserved in the Dorchester Museum, but only 440 coins were catalogued by Roberston (NC 1950). These are all denarii (Mark Antony - Julia Domna), except for one Lycian drachm of Trajan.","County Museum, Dorchester (part)",II century
Bulgaria,1990,2686,GIGEN 1990,30,161,180,43.708,24.466,(ca.30) 12 sestertii and dupondii: Trajan - Marcus Aurelius (AD 161-180).,"Regional History Museum, Pleven, Bulgaria; auxiliary fund, inv.no. 693",II century
Ukraine,1900,18169,BOGDANOVKA,770,138,161,49.297048303565,29.200379539719,"770 denarii found with a ceramic vessel. Among issuers: Trajan, Hadrian, Antoninus Pius.",NA,II century
Germany,1842,17204,WESERMÜNDUNG 1842,6,117,138,53.5366,8.5669,"Six denarii (Domitian - Hadrian), found in the estuary of the River Weser in 1842.",NA,II century
"England, United Kingdom",2011,2066,CHARLWOOD,23,141,161,51.164247,-0.25656181,"2 Iron Age gold quarter-staters, 18 denarii and 1 quinarius to Antoninus Pius and 6 copper-alloy votive objects.",NA,II century
Germany,1922,15416,BERNBEUREN,54,183,192,47.74637,10.75871,Coin hoard consisting of 54 Roman sestertii (Domitian - Commodus) was discovered in 1922 while excavating an old lime tree. The coins were stratified in three layered rolls. They have been lost.,NA,II century
Romania,1970,16294,DAVIDENI,26,169,170,47.12489,26.598978,Unknown originally number of coins. 26 denarii are known at the moment: Nero – Marcus Aurelius (AD 169-170).,"Town museum, Piatra Neamț, Romania",II century
France,1803,5584,WALLERS 1803,15,138,161,50.3734,3.3913,15 of the sestertii from a larger hoard were identified by S. Bottin. The hoard was originally located in Bellaing in error.,Mayor Moreau,II century
"England, United Kingdom",1795,62,HUGHENDEN 1795,24,138,180,51.674349,-0.77215784,Hughenden - Upon Piggott Common: 24 Roman coins (copper) discovered 1795 in throwing up a bankan earthen vessel about 18 inches below the surface.,NA,II century
France,1821,5486,CAILLY,29,181,182,49.5792,1.2308,"The hoard comprised '27 aurei of Vespasian to Commodus along with some silver denarii.' The gold coins were distributed amongst the family of the landowner. Although 9 of the aurei were given to the Musée de Rouen by M. Esnault, these were later stolen.","Musée de Rouen, France (9 coins. stolen)",II century
"Israel, Palestinian Territories",1967,8466,IDNA 1967,25,132,136,31.557,34.979,"25 coins? ""Medium-sized hoard. Allegedly Bar Kokhba silver and bronze together with Syrian tetradrachms and Roman denarii"" (Mildenberg 1984, 56).",Dispersed,II century
Israel,1973,8189,BEIT MIRSIM,385,132,136,31.454,34.912,"The hoard comprised a mixed hoard of gold, silver, and bronze deposited in relation to the Second Jewish Revolt (AD 132-136).",NA,II century
Armenia,1955,17473,GAṘNI [ԳԱՌՆԻ] 1955,48,185,191,40.1195,44.723,"A hoard of 48 denarii, ranging from Vespasian to Commodus, discovered in the fortress of Gaṙni in 1955.",History Museum of Armenia,II century
Poland,1933,13471,MALKOWICE,134,193,194,50.173747,20.603933,Around 300 denarii possible found with a leather bag. 134 coins provide information on the issuers: Vespasian - Septimius Severus (AD 193-211).,"Archaeological Museum, Krakow (132 coins); private collection, Gnojni (2 coins)",II century
"Russia, Ukraine",2010,18381,TIRITAKA 2010,2,179,180,45.2773,36.4073,"In 2010 archaeological excavation of the northern part of Tyritake city-site (site XXVIII) a boxlike altar made of limestone tiles was found in Room I. Altar clearing uncovered two golden staters of Bosporus kings Eupator and Sauromates II, which are most likely to have been offerings to Dionysus. Sauromates II’s stater suggests dating offerings to Dionysus to AD 179 or a little later.",NA,II century
Portugal,1950,12888,NORTH PORTUGAL 1960'S,55,154,157,41.31,-7.742,55 bronze coins with unknown findspot except for the mention north Portugal,Lost,II century
Greece,1936,6716,ATHENS 1936 AGORA,10,192,192,37.9754,23.7222,"A hoard of 9 provincial coins from Athens (periods VB and VC) and one sestertius of Commodus. The coins were excavated in 1936 in front of the north end of the Stoa of Attalos (grid P 7). When found, several of the coins were stuck together, suggesting that all ten were originally put away in a purse.",NA,II century
Bulgaria,1928,10081,MAKRESH,90,161,180,43.7644,22.6439,"(90) 27 denarii: 7 republican, 20 imperial: Republic - Marcus Aurelius (AD 161-180). Found in a ceramic vessel.",NA,II century
Ukraine,2010,18634,ZHULYCHY,90,195,197,49.8722,24.8866,"Unknown originally number of coins, around 160-200 denarii. Only 90 were documented: Otho - Clodius Albinus (AD 195-197).",NA,II century
Germany,1870,17155,BRAUNSCHWEIG DOWESEE,4,161,180,52.2922,10.5307,"Four bronze coins (Trajan - Marcus Aurelius), found on the Dowe-See estate on the Bullenteich in Braunschweig, next to other small Roman objects (bronze fibula, bronze ring, glass pearls, spindle whorl, etc.).",NA,II century
Romania,1958,16312,BĂLĂNEȘTI 1958,103,181,181,46.95159,26.635579,"103 denarii, among which one imitation: Vespasian – Commodus (AD 181).","History Museum, Piatra Neamț, Romania (Inv.no. 3234)",II century
Slovenia,1913,8972,PTUJ 1913,11,138,161,46.42,15.87,Leather purse with 10 bronze rings and 11 bronze coins: Trajan - Antoninus Pius. Only one bronze coin of Antoninus Pius is known.,NA,II century
Serbia,1936,2806,BELA REKA,322,181,182,44.6483,19.4886,"322 denarii: Mark Antony - Commodus (AD 181-182). The hoard also includes silver and gold jewelry. Gold: 1 bracelet, 1 ring. Silver: 1 patera, 1 chain, 2 brooches, 1 necklace, 1 bracelet, 2 cups. All items were placed in a silver casket.","National Museum Belgrade, Serbia",II century
Poland,2012,18539,WTÓREK 2012,67,180,192,51.638072540174,17.887858048589,67 denarii: Vespasian - Commodus (AD 180-192).,NA,II century
Romania,1974,6156,HERTIOANA DE JOS,76,179,179,46.639,27.026,76 denarii found with a ceramic vessel: Otho - Marcus Aurelius (AD 179).,County Museum Bacău,II century
Bulgaria,1961,2935,DEVENE,28,165,166,43.4125,23.6146,Unknown initial number of coins: 28 denarii: Vespasian - Marcus Aurelius (AD 166); silver weight: 54.2-84.4g.,"Regional History Museum, Vratsa, Bulgaria; inv.no. M I 233-250",II century
"England, United Kingdom",1878,2165,SOUTH SHIELDS 1878,132,191,192,54.996285,-1.4388217,"A hoard of 10 aurei and 120+ denarii, found in 1878 near the Roman fort. The closure date of this hoard is AD 192. However the penultimate coin is an issue of 185 and a seven year gap between the terminal issues is unusual. In the event the hoard is listed as closing with RIC 241, with the caveat that the last coin may be a site find rather than a hoard item (P.J. Casey).",NA,II century
Portugal,1994,12890,CASCAIS,4,138,161,38.698,-9.422,"Four bronze coins, three sestertii and 1 as, were found together in a wall: Domitian, Trajan, Hadrian, Antoninus Pius (AD 138-161)",NA,II century
Romania,1964,2590,DROBETA-TURNU SEVERIN 1964,7,132,134,44.63,22.674,"7 aurei: 6 Hadrian, 1 Sabina (AD 132-134)","Museum of Iron Gates Region Drobeta-Turnu Severin, Romania",II century
Romania,1987,16291,CĂLUGĂRENI,63,162,163,46.746675,27.020254,"Unknown originally number of denarii found with a ceramic vessel. 63 coins were recovered, 62 denarii, 1 drachm: Vitellius – Marcus Aurelius (AD 162-163).",NA,II century
Romania,2011,18541,OCHENI,53,163,164,46.284380619197,27.231187704232,53 denarii: Republic - Marcus Aurelius (AD 161-180). Circumstances of discovery are unknown.,"Museum complex ”Iulian Antonescu”, Bacău, Romania (inv.no. 36.172-36.224)",II century
France,1834,7398,AMIENS 1834,402,181,183,49.894,2.296,"The hoard comprised more than 400 worn coins including issues of Nero, Trajan, Hadrian, Antoninus Pius and Crispina.",NA,II century
Egypt,1972,7798,LUXOR A56,188,161,169,25.714492955795,32.656456837895,More than 188 billon provincial coins of Alexandria: Nero - Marcus Aurelius (Lucius Verus) (AD 161-169). 'Found at Avenue of the Sphinxes during clearance excavations.',"Museum, Luxor, Egypt",II century
Poland,1937,13496,PRZĘDZEL,167,161,169,50.487217,22.222621,"Around 700 denarii found with a ceramic vessel, of which 167 provided information on the issuers: Nero - Marcus Aurelius (Lucius Verus) (AD 161-169).","Museum of History, Lwow, Poland; private collection",II century
"England, United Kingdom",1863,2565,DEWSBURY 1863,2,140,161,53.666934,-1.6382439,"A 'valuable find of gold and silver coins', of which one coin was a denarius of Antoninus Pius (broken and much defaced), found on Dewsbury Moor, near remains of two Roman querns.",NA,II century
Hungary,1943,2984,MISKOLC - SURROUNDINGS,115,193,194,48.1328,20.8048,115 denarii: Vespasian - Septimius Severus (AD 193-194); silver weight: 354 g,"County Museum, Miskolc, Hungary; dispersed",II century
Romania,1935,16277,COSTIȘA,43,147,148,46.756907,26.646749,"Unknown originally number of coins. 43 denarii are kept at the town museum in Piatra Neamț, Romania: Republic – Antoninus Pius (AD 147-148).","Town museum, Piatra Neamț, Romania (43 coins)",II century
Netherlands,1985,10030,VECHTEN 1985,15,138,161,52.058,5.162,"15 sestertii, dupondii, asses: Augustus-Antoninus Pius (AD 138-161).",Private collection,II century
Tunisia,1960,5364,EL KSOUR,2000,138,161,35.898,8.881,"From information obtained by Khaled Ben Rhomdane, the hoard comprised 2000 Republican denarii, although there is some suggestion that there were also imperial denarii including issues of Antoninus Pius. The hoard was stolen.",Stolen,II century
Sweden,1847,15536,BUTTLEGÅRDA,2,145,161,57.407024,18.492704,"Grup of two denarii: Hadrian, Antoninus Pius (AD 145-161); silver weight: 5.52 g.","Swedish History Museum, Stockholm (inv.no. 1345)",II century
Romania,1948,16315,COSTEȘTI,171,180,192,47.235022,26.932095,"Hoard of 171 denarii, only 139 were recorded: Nero – Commodus (AD 180-192).","Museum Complex Iași, Romania (121 coins); National History Museum, Bucharest, Romania (50 coins)",II century
Egypt,1913,7785,EL-HÎBA A43,237,143,144,28.7887,30.9251,237 provincial coins of Alexandria: Claudius I - Antoninus Pius (AD 143-144). Two sacks found in a house during excavations.,"Aegyptologisches Institut, Heidelberg, Germany",II century
Romania,1985,16301,OARȚA DE SUS,307,161,180,47.468964,23.07889,307 denarii: Republic – Marcus Aurelius (AD 161-180).,"Muzeul Județean de Istorie și Arheologie Maramureș, Baia Mare, Romania",II century
Poland,1829,13433,GOSTYNIN,83,117,138,52.429167,19.461667,83 denarii: Nero - Hadrian (AD 117-138).,Lost,II century
Algeria,1948,4942,TIPASA 1948-1950,86,143,143,36.618,2.391,The hoard comprised 86 denarii from Mark Antony to Antoninus Pius (AD 143).,NA,II century
Romania,1935,5267,SASCUT,1000,186,191,46.207,27.101,"Over 1,000 denarii: Nero - Commodus (AD 186-191).","Museum of Bucharest, Romania",II century
Romania,1970,16269,STRUNGA 1970,12,125,128,47.164718,26.957566,12 denarii entered the collection of the Pedagogic High-School in Iași: Vitellius – Hadrian (AD 125-128). Part of the hoards Strunga I and II.,"Pedagogic High-School, Iași, Romania (12 coins).",II century
Poland,1901,13660,GOLUB-DOBRZYN,2,183,183,53.1087,19.054,"Two denarii: Antoninus Pius, Commodus (AD 183).",Lost,II century
Ukraine,2008,18595,CHUTOVE,135,194,195,49.7061,35.1849,135 denarii found by metal detecting: Vitellius - Septimius Severus (AD 194-195). Together were found: Flint pendant; an iron chain; a ceramic spindle.,NA,II century
Spain,2017,17568,REBOLLAR,46,117,138,40.1539433134,-5.8988712846984,Hoard of 17 denarii (Mark Antony - Augustus) and 29 sestertii (Nerva - Hadrian) (AD 117-138).,NA,II century
Ukraine,1883,18171,STARYIE VALKI 1883,10,180,192,49.862122952047,35.523089388633,"Unknown originally number of denaarii found with a ceramic vessel. Only 10 coins were recovered. Among issuers: Augustus, Tiberius, Nero, Antoninus Pius, Commodus and other emeperors.",Private collection Golyakhovski,II century
Poland,1909,13699,PRUSZCZ GDAŃSKI 1,85,184,184,54.259404,18.650407,85 sestertii found with a ceramic vessel within a burial ground of the Wielbark Culture: Hadrian - Commodus (AD 184).,"National Museum Gdańsk, Poland",II century
Italy,1903,13873,MONTE CUORE,272,119,122,45.683015,8.767807,272 coins found with a ceramic vessel: Claudius I - Hadrian (AD 119-122).,NA,II century
Denmark,2001,13421,HELLERNE,7,183,184,55.707992,12.29287,Seven denarii found through several rounds of detecting.,NA,II century
France,1775,7124,ALLÉRIOT 1775,2,161,180,46.8134,4.9383,"The hoard was found in a vessel containing coins of the Principate, including 2 coins of Antoninus Pius and Marcus Aurelius.",NA,II century
Romania,1959,16298,TĂCUTA,4,170,175,46.911161,27.685553,"Four denarii, pressumably belonging to a hoard, found at the same place at different dates. ”The scientific literature has falsely perpetuated the locality of Mircești (situated 5 km to the west) as the place of origin for the coins.”",NA,II century
Czech Republic,1862,15875,FOLMAVA,3,117,138,49.349112,12.856193,"Unknown number of Roman bronze coins, only 3 pieces are known: Augustus, Nero, Hadrian",NA,II century
Sweden,1901,15533,KÄRNA-KÄNNE 1901,2,186,186,57.245327,18.508032,Two denarii of Commodus (AD 186); silver weight: 4.66 g.,"Swedish History Museum, Stockholm (inv.no. 11470)",II century
Germany,1966,17475,GNOTZHEIM 1966-1968,47,194,195,49.05712,10.70444,A hoard of Roman denarii comprising at least 47 coins ranging from Nero to Septimius Severus.,NA,II century
France,1844,6338,SAINT-DIDIER-AU-MONT-D'OR,21,197,197,45.812,4.798,"In 1844, numerous skeletons were found, buried one on top of the other. One wearing an iron mail shirt, also possessed 'un coeur en bronze doré', 17 denarii and 4 bronze coins. Like TAF V. 33, the assemblage has been interpreted as representing the savings of a soldier killed in the battle between Septimius Severus and Clodius Albinus in AD 197.",NA,II century
France,1845,5882,FOUGEROLLES-DU-PLESSIS,150,180,192,48.475,-0.981,"The hoard comprised '100s of bronze coins (150 coins according to Angot). The majority were of Trajan, Hadrian and of Antoninus Pius. In the 1860s, the vicar of Fougerolles, Charles Pointeau, examined 72 coins and Chevallier acquired 'a good number, all large bronzes of Trajan to Commodus'. It has therefore been assumed that this hoard was made up of sestertii.",NA,II century
Spain,1856,17572,DEHESA DE ABAJO,125,103,117,37.692566667214,-6.3162086039794,Hoard of 125 denarii. The large majority belong to Trajan including the title DACICVS. The hoard was found with two silver vessels embedded each other.,NA,II century
Romania,1908,2599,VIȘEA,86,155,156,46.8563,23.8724,86 denarii: Nero - Antoninus Pius (AD 155-156).,NA,II century
Portugal,1744,17595,BRAGA 1744,300,161,180,41.550070509781,-8.4269290383417,300 aurei: Nero - Marcus Aurelius (AD 161-180).,Dispersed,II century
Bulgaria,1946,10113,POPITSA 1946,40,117,138,43.4277,23.9523,40 denarii found in a ceramic vessel. Majority belongs to Hadrian.,NA,II century
Belgium,1909,17417,MEUX-SAINT-DENIS,59,190,191,50.542388,4.791821,"Unknown originally number of coins. 59 bronze coins are known: 51 sestertii, 9 dupondii: Trajan - Commodus (AD 190-191).",Finder's collection,II century
Poland,1905,13469,ŁÓDŹ - SURROUNDINGS,300,161,162,51.776667,19.454722,Hoard of 300 denarii found with a vessel. 130 pieces are known: Antoninus Pius - Marcus Aurelius (AD 161-180).,"At the beginning of the 20th century, in the collection of the industrialist Hertig in Łódź.",II century
Poland,1874,13431,GORAJ,200,117,138,50.7209,22.6675,"Around 200 denarii. Among them issues of Nero, Vitellius, Vespasian, Titus, Domitian, Trajan and Hadrian.",Lost,II century
Russia,1876,18203,RYLSK,50,187,188,51.571124206995,34.679986082518,"Hoard of 50 denarii. Only 8 pieces are documented: Antoninus Pius 3, Marcus Aurelius (Antoninus Pius Divus), Commodus 4.","National Museum of History, Moscow, Russia (inv.nos. 14863, 14865-14869)",II century
Sweden,1964,15594,UGGÅRDA,2,189,189,57.174807,18.432183,"2 denarii: Commodus, 1 imitation of Marcus Aurelius; silver weight: 5.06 g.","Swedish History Museum, Stockholm (inv.no. 27518)",II century
Ukraine,1954,18247,KRYACHKOVKA 1957,31,187,188,50.298376682126,32.310455579327,31 denarii found in a silo at the site of the Cherniakyv Culture: Vespasian - Commodus (AD 180-192). Together were found two silver loops.,"Institute of Archaeology of the Academy of Sciences, Kyiv, Ukraine (11 coins, 1 loop); School museum, Davydovka, Ukraine",II century
France,1891,5815,VALLETOT,200,138,161,49.364116,0.624134,"The hoard comprised approximately 200 'small Roman bronzes' of the Antonine period, most of which were well preserved. Unfortunately, an acid bath rendered them indecipherable.",NA,II century
Netherlands,1932,9995,RASQUERT 1932,15,174,175,53.3682,6.517,15 sestertii: Trajan - Marcus Aurelius (AD 174-175).,"Groninger Museum (12 coins), private collection (3 coins)",II century
Russia,1854,18219,KALUGA REGION,50,180,192,54.401160454228,35.420555543248,"Unknown originally number of coins. 50 denarii were sent to the Sankt Petersburg. Among issuers: Vespasiaen, Hadrian, Antoninus Pius, Faustina I, Commodus (AD 180-192).",NA,II century
Italy,1892,6146,ROME 1892 - AVENTINE HILL,300,161,169,41.883656,12.478646,"A hoard of 3-400 aurei. 42 coins were recovered. They are all issues of Lucius Verus, 3 types (Coh. 157, 247, 248).","Royal Coin Room, Amsterdam, Netherlands (3 coins since 1894); 1 coin in Berlin",II century
Germany,1867,17178,BENTWISCH,7,186,186,53.76487,9.14947,In 1867 a hoard of denarii was discovered in a sand hill on the left bank of the Oste river two miles from the estuary. The six preserved coins run from Vespasian to Commodus. It is to be assumed that the hoard was composed of more specimens.,Berlin (1867/28789),II century
Romania,1977,16318,GHERĂIEȘTII NOI,271,184,185,47.051801,26.79431,271 denarii found with a ceramic vessel: Nero – Commodus (AD 184-185).,"History Museum, Piatra Neamț, Romania (Inv.no. 5978)",II century
Austria,1980,13261,HALBTURN,38,192,192,47.871,16.974,"38 bronze coins: 2 sestertii, 4 dupondii, 28 asse, 4 dupondii or asses: Titus - Commodus (AD 192).",NA,II century
Hungary,1900,5248,MOCSOLÁD,1243,163,176,46.05,18.27,"1243 silver coins: 1241 denarii, 2 drachmas: Republic - Marcus Aurelius (AD 164)",NA,II century
Netherlands,1989,9977,NUENEN 1989,100,178,183,51.472,5.5464,100 coins of which one bronze coin of Marcus Aurelius/Commodus for Crispina (Augusta) (AD 178-183).,"Private collection and museum Eindhoven, Netherlands",II century
France,1778,9717,SAINT-BARTHÉLEMY 1778,36,117,138,47.748,6.586,The hoard comprised Roman gold and silver coins: Galba - Hadrian (AD 117-138).,NA,II century
France,1983,7066,RAMPILLON 1983 2,65,180,192,48.55,3.067,The hoard comprised 65 sestertii from Domitian to Commodus (AD 180-192). All the coins were very worn. Fragments of a ceramic vessel were found in association with the coins suggesting it was originally placed inside a pot.,NA,II century
Slovenia,1965,2846,ŽUŽEMBERK,17,125,138,45.831066,14.930185,The hoard comprises 17 asses from Vespasian to Hadrian (AD 117-138).,"Dolenjski muzej Novo Mesto, Slovenia",II century
Sri Lanka,1904,18477,AKURESSA,5,180,192,6.1002093523584,80.47700059735,"A potful of Roman silver coins. Only five coins have been poorly documented: L. Scribonius Libo, Marcus Aurelius, Faustina I, Faustina II, Commodus.",NA,II century
Belgium,1896,8267,PEER,23,117,138,51.133,5.454,23 denarii: Republic (L. Thorius Balbus) - Hadrian (AD 117-138).,NA,II century
Netherlands,2005,9936,LEIDEN 2005 1,2,119,120,52.1462,4.5147,"2 silver coins: Titus for Divus Vespasianus, Hadrian.",Private collection,II century
"England, United Kingdom",1910,1662,OLLERTON,427,180,180,53.178264,-1.0438701,"A hoard of 427 silver coins (426 denarii and one Lycian drachm), of which the first lot was found in 1910 in a clay pot, while ploughing a field. It comprised 367 Roman denarii (Nero to Commodus), one Lycian drachm of Trajan and one contemporary cast forgery, also from Trajan. A further lot of 50 denarii (Mark Antony – Commodus) was found between April and December 1988 by members of the Chesterfield Metal Detector Club, in the vicinity of the first lot and can be regarded as a further portion of the same find. A further 8 denarii (Vitellius - Antoninus Pius) were found with the aid of metal detectors in November 2012.",Doncaster Museum (part); Newark Museum (part); British Museum (part),II century
Bulgaria,1980,10256,KOSHARNA 1,1000,138,161,43.8828,26.2975,1000 denarii found in a ceramic vessel - metal detecting - in an ancient building. The latest coins belong to Antoninus Pius.,NA,II century
Romania,1902,16292,CAPORAL ALEXA,100,161,175,46.33761,21.581668,"Around 100 denarii, 27 were studied: Nero – Marcus Aurelius (Faustina II) (AD 161-175).","Móra Ferenc Museum, Szeged, Hungary",II century
France,1860,5492,PARIS 1860 - (QUARTIER ODÉON),1600,184,184,48.847,2.341,"The hoard comprised approximately 1,600 aureii, from Julius Caesar to Commodus. Most of the hoard was immediately dispersed and sold.",NA,II century
Croatia,1946,16174,KOČINJE BRDO,229,158,161,43.586223,16.561332,"A hoard of around 270 copper coinage, only 229 were recovered and identified: Vespasian - Antoninus Pius (AD 158-161).","Archaeological Museum, Split, Croatia; partly dispersed",II century
Romania,1853,2604,TIBODU,763,167,167,46.349,25.311,826 coins found with a ceramic vessel. 763 denarii were: Republic - Marcus Aurelius (AD 167). The hoard was entirely recovered but not published accurate.,NA,II century
Ukraine,1907,18301,KIREYEVKA,6,161,180,51.603943197666,32.584704442084,"Hoard of few kilos of denarii. Only 6 coins are known: Hadrian, Antoninus Pius 4, Lucilla.","Local museum, Sosnitski, Ukraine (inv.no. 1447-1452).",II century
"England, United Kingdom",2006,14578,BEMBRIDGE 2006,8,164,169,50.697133,-1.0951936,Three coins found together by a detectorist and recorded by M. Lyne. Details from HER.,NA,II century
Greece,1975,6738,THEBES,25,144,144,38.319,23.318,"The hoard comprised 25 coins (23 sestertii, 1 dupondius and 1 Provincial bronze of Trajan of the Koinon of Cyprus), ranging from Titus to Antoninus Pius.",Thebes Museum,II century
Czech Republic,1932,15964,MUŠOV,7,197,197,48.788311,16.680009,Seven denarii found under a pile of Roman bricks: Trajan – Septimius Severus (AD 197).,NA,II century
"Israel, Palestinian Territories",1982,7957,HEBRON AREA 1982,24,136,132,31.533,35.1,The hoard comprised 24 bronze coins of the Bar Kokhba Revolt (AD 132-135/6).,Trade,II century
Belarus,2010,20999,TSIAPY,28,191,192,53.691373443191,24.463800815609,Hoard of uncertain number of imperial denarii found while metal detecting. 28 coins were presented to the museum: Hadrian - Commodus (AD 191-192).,"Grodno State Historical and Archaeological Museum, Belarus",II century
Romania,1971,2605,DIVICIORII MARI,27,161,175,46.988,24.072,Unknown originally number of denarii. 27 coins are known at the moment: Republic - M. Aurelius (AD 161-175).,NA,II century
Belarus,1993,17430,MALYECH,408,193,194,52.493064,24.738335,"The hoard was discovered in 1993 by Vasily Prigodich (excavator operator), during the digging in a chalk quarry (between the villages of Malyech and Kabaki). The coins were in a hand made pot. In total, the hoard contained 408 (or 409?) coins, but to study preserved only 383 denarii (Vespasian-Septimius Severus) and four barbarian imitations of denarii.",National Historical Museum of Republic of Belarus,II century
Spain,1913,17969,SALVATERRA DE MIÑO,24,140,140,42.083330946478,-8.5002666801214,Hoard of 40 bronze coins found with a ceramic vessel. Only 24 coins were documented: Nero - Antoninus Pius (AD 140).,NA,II century
Germany,1884,17186,HALSMÜHLEN,3,161,175,52.949537,9.2356,"Three denarii (Nerva - Faustina II), found with others on a field in Halsmühlen.",NA,II century
Greece,1957,20025,ATHENS 1957 ACROPOLIS,59,172,192,37.9719,23.7263,"A hoard of 59 plated Roman silver coins (cistophori and denarii), found on the south slope of the Acropolis in excavations by the Greek Archaeological Service, near the central room of the Eastern Roman cistern. Of the 59 coins, 35 could be identified: 16 cistophoric tetradrachms (Claudius – Nerva) and 19 denarii (Trajan – Commodus).",NA,II century
Slovenia,1970,8866,DRNOVO 1970,50,145,161,45.918,15.484,"Around 50 bronze coins were found in a money-box. Only 13 coins were recovered: 5 sestertii, 6 dupondii, 2 asses: Trajan - Antoninus Pius (AD 145-161) are kept in the National Museum in Ljubljana.","Narodni muzej, Numizmatični cabinet, Ljubljana, Slovenia (13 coins), inv.no.: 4584-4591; dispersed",II century
Czech Republic,1945,15894,ČESKÁ SKALICE ? 1945,10,162,162,50.39453,16.041781,10 denarii: Trajan – Marcus Aurelius (AD 162).,"NPÚ-ÚOP Pardubice, Náchod Castle collection, Czech Republic (inv.nos. 2.920, 3.016-3.023).",II century
Poland,1887,13459,KRZEWICA,600,179,180,52.0487,22.6637,Over 600 denarii found while digging up a grave. Only 6 pieces provide information on the issuers: Trajan - Commodus (AD 179-180).,NA,II century
Poland,1877,13448,KALISZ - SURROUNDINGS,2000,190,190,51.7625,18.089722,"Around 2,000 denarii found on the surface after the river outflow. Only 8 denarii were known: Trajan 2, Hadrian 1, Faustina I 3, Commodus 2.",Lost,II century
Poland,2006,13494,PRZEZDROWICE,22,174,174,50.884,16.779,22 denarii found on a cultivated field: Vespasian - Marcus Aurelius (AD 174).,"Gabinet Numizmatyczno-Sfragistyczny, Zakład Narodowy im. Ossolińskich, Wrocław, Poland",II century
Morocco,1930,5228,VOLUBILIS 1930,105,119,122,34.074,-5.556,"A hoard of at least 105, possibly up to 115, denarii found at the end of December 1930, of which only 105 are still identified in the records of Rabat Museum. Chatelain, the original excavator, listed 114 coins in the find, including two coins of Juba II, one of Nero, one of Galba, nineteen of Vespasian, seven of Titus, twenty-three of Domitian, three of Nerva, forty-eight of Trajan and ten of Hadrian. However it is clear that Chatelain misidentified two of the Republican denarii as coins of Juba II. The next publication of the hoard, by Ruhlmann, came in 1933. This list largely agrees with the records kept by Rabat Museum, but includes ten extra coins, taking the total up to 115, which must now be regarded as lost. The missing coins listed by Ruhlmann are as follows: one Republican denarius, one denarius of Vespasian, two denarii of Domitian, five denarii of Trajan and one Hadrianic denarius. There are no further details concerning the types of these coins, because Ruhlmann only published in detail the nine latest specimens from the find. The whole hoard was contained in a hollow bracelet and was probably buried circa 122.",Rabat Museum,II century
Ukraine,1865,18140,SARNKI GORNYIE,29,180,192,49.175321543768,24.718091378671,Unknown originally number of coins found with a ceramic vessel. Only 29 denarii were documented: Hadrian - Commodus (AD 180-19922).,NA,II century
Germany,1986,16632,ROTTWEIL 1986,5,118,118,48.165388,8.628033,"5 denarii (Vespasian - Hadrian) found together in Rottweil, in the south of the Roman city (Parzelle 969/3, Firma Mahle).",NA,II century
Syria,1932,9826,DURA EUROPOS 21,18,183,183,34.747,40.73,"A hoard of 18 denarii (Otho-Commodus) found during excavations at Dura Europos, in E4-15.",Yale University,II century
Switzerland,1965,6440,AIROLO TI - MADRANO 1965 / TOMB 1,8,161,161,46.526,8.628,"The hoard comprised 1 denarius (Diva Faustina I) and 8-9 aes coins ranging fro Hadrian to Faustina II. They were recovered during the excavation of a inhumation burial (tomb 1/1965) in the necropolis and were interpreted as the contents of a purse. Only 5 coins are preserved today, but descriptions of the other ones exist.","Ufficio dei beni culturali, Bellinzona (5 coins); lost (4-5 coins)",II century
Ukraine,2021,20646,POLONNE – VICINITY,45,180,192,50.1332963609,27.5019939919,"A hoard of 60 Roman imperial denarii was discovered by a treasure hunter at the end of September 2021: Vespasian – Commodus (AD 180-192). Photos of 45 coins were published on the Ukrainian forum for treasure hunters, Violity. According to the finder, the coins were in a “small pit”, not far from a settlement of the Chernyakhiv culture, on the depth ca. 15-30 cm. At the end of 2021, the coins were sold at the Violity auction.",Sold,II century
Luxembourg,1871,13325,HOLLER,387,175,180,50.123495254372,6.0476006905509,"The details of the hoard are not well known. Found in 1871 it passed possession multiple times and was eventually split. Originally 387 silver coins were found, and one gold piece, along with several urns. Only 12 pieces are described: Domitian - Marcus Aurelius (Lucilla Augusta).",NA,II century
Poland,1880,13508,SITNO,47,161,180,53.0433,19.0966,47 de denarii with very poor information on the contents: Hadrian - Marcus Aurelius (AD 161-180).,NA,II century
Belgium,1990,9241,ASSE 1990-2000,76,177,178,50.909,4.201,76 gold coins found in the nineties: Nero - Marcus Aurelius (AD,NA,II century
Romania,1994,9229,MANGALIA 1994,13,161,175,43.8188,28.549,"13 bronze coins: 4 sestertii, 2 dupondii, 7 asses: Claudius I - Marcus Aurelius (AD 161-175).","Muzeul de Istorie Națională și Arheologie, Constanța, Romania; inv.nos. 64682-64694",II century
France,1878,7334,LA COMELLE 1878,7,180,192,46.88,4.111,"The hoard comprised 9 figurines, 1 patera and 7 bronze coins from Vespasian to Commodus.",NA,II century
Lebanon,1959,7615,BEQQA?,96,132,136,33.846,35.902,The hoard comprised 96 bronze coins from the Bar Kokhba Revolt (AD 132-135/6).,NA,II century
"England, United Kingdom",1929,1037,ASHFORD,18,150,150,51.160631,0.84460875,"A Roman burial was discovered in the spring of 1929 in widening the south side of the Ashford-Maidstone-London road. This almost certainly represents an untouched cremated deposit. Together with other objects, it contained 18 gold coins or disks.",NA,II century
Germany,1977,18670,DORMAGEN 1977,10,161,162,51.09683,6.83167,10 denarii (Vespasian - Marcus Aurelius) found corroded together with a bronze fibula and a clasp. They might have been contained in a purse.,NA,II century
Greece,2006,6899,PELLA WEST CEMETERY 2006 (LAK. 22),2,169,180,40.763,22.526,"A hoard of one denarius of Divus Antoninus Pius and one Roman Provincial coin of Marcus Aurelius minted in Edessa, found in grave 22 in the western cemetery in Pella.",NA,II century
France,1859,6078,VERNEUIL-SUR-VIENNE,5,138,161,45.849282,1.126404,The coins were found in a glass urn along with a human cremation. Among issuers Hadrian and Antoninus Pius.,NA,II century
Germany,1908,17017,KASTELL ZUGMANTEL KELLER 208,6,140,143,50.18977,8.20364,"In 1908, 6 denarii (Domitian to Antoninus Pius) were found lying together at the entrance of cellar 208 (in the vicus surrounding the Roman fort).",NA,II century
Switzerland,1826,6430,SCHLEITHEIM SH 1826-1908,7,106,106,47.742,8.478,"The hoard comprised 7 aurei terminating in an issue of Trajan dating to AD 106. From 1826 to 1908, 7 Roman aurei were found by chance in the fields, all in the same region (Salzbrunnen and Z'underst Wyler), at a maximum distance of ca. 150 meters. These could be single finds or rather a dispersed hoard? Found in 1826: Nerva; 1859: Nero; 1894: Vespasian; 1896: Trajan; 1899: Nerva; 1907: Galba; 1908: Trajan.",Kantonsarchäologie Schaffhausen (4 coins); Schweizerisches Landesmuseum Zürich (2 coins); Bernisches Historisches Museum (1 coin),II century
Czech Republic,1884,15891,ČESKÁ SKALICE 1884,14,161,180,50.39453,16.041781,14 denarii: Claudius I – Marcus Aurelius (Lucilla) (AD 161-180).,"National museum, Prague, Czech Republic (11 coins)",II century
Bulgaria,1965,10234,KESAREVO,46,161,180,43.1526,25.9648,"46 bronze coins: 45 sestertii, 1 provincial coin: Trajan - Antoninus Pius (AD 138-161).","Archaeological Museum, Veliko Tarnovo, Bulgaria; inv.no. 2287-2326",II century
France,1896,7126,ANOST,6,169,169,47.065,4.113,The hoard comprised 4 copper-alloy statues and 2 copper-alloy vessels. One of the copper-alloy vessels contained 6 bronze coins of Marcus Aurelius and Divus Lucius Verus. One coin was lost.,NA,II century
Egypt,1926,5473,KARANIS 1926,60,156,157,29.51973,30.90194,Circa 60 aurei. Disintegrated cloth bag found during excavations in the courtyard of a house.,NA,II century
Ukraine,2018,20662,FASTIV – SURROUNDINGS,70,193,197,50.0784532685,29.9126916527,"A hoard of at least 70 Roman Imperial denarii was discovered in 2018 (?) in the vicinity of Fastiv. Information about the hoard on the treasure hunting forum Violity was posted on 16 December 2018, probably by its finder, who also provided one general photo of the deposit. The coins were fused into one large ingot and had traces of heavy exposure to fire. Three coins were found separately. A silver item in the form of a ring-bent bar measuring ca. 2.5x3 cm (possibly a clasp from the pouch in which the treasure was hidden). There were also small fragments of pottery nearby, whose relation to the hoard is not clear. Judging by the photos posted on the forum, the hoard was sold at the Violity auction. The further fate of the deposit is unknown.",Sold,II century
France,1893,7108,FONTAINE-UTERTE,14,180,192,49.922,3.371,The hoard comprised 14 sestertii from Trajan to Commodus and was found placed next to two greyware ceramic vessels.,NA,II century
Romania,1909,9144,FLĂMÂNDA-CREMENARI,465,117,138,44.979,24.315,From 465 only 60 denari are known: Nero - Hadrian (AD 117-138). Found in a ceramic vessel.,Dispersed,II century
Ukraine,2018,18619,SKYPCHE,70,187,188,49.059951811298,26.548482966567,"70 denarii: 69 Rome issues, 1 imitation: Trajan - Commodus (AD 187-188). Together, it was found a ring made of a silver-coloured metal.",Sold in auction,II century
Germany,1906,16588,NÖRDLINGEN 1906,7,141,161,48.851261,10.486183,"This hoard was found in a Roman building. It consisted of 7 denarii, ranging from the late Republic to Antoninus Pius. The coins lay stratified in a roll and the find appears to be complete.",NA,II century
"England, United Kingdom",1940,14854,SHERINGHAM,5,138,161,52.942494,1.1536802,"HER record of a first century hoard found on Sheringham Beach along with remains of a ceramic container, exposed through cliff erosion. Only 5 coins were examined but the hoard was much larger.",NA,II century
Italy,1957,12539,ODERZO 1957,139,161,180,45.78,12.497,"A large hoard of denarii and a few bronze coins was found during construction works in 1957. Only 139 coins (Vespasian-Marcus Aurelius, 70-180 AD) were recovered but subsequently stolen in 1972-1973.","Museo Civico, Oderzo, Italy",II century
Czech Republic,2014,18520,ZÁTOR,105,161,180,50.034438414841,17.593826954507,105 denarii: Trajan - Marcus Aurelius (AD 161-180).,"Museum of Bruntál, Czech Republic",II century
Germany,1919,16475,BERLIN-LICHTERFELDE 1919,5,181,181,52.4314,13.3097,"Five denarii, from the reigns of Antoninus Pius, Marcus Aurelius, and Commodus, discovered in a garden in Berlin-Lichterfelde in 1919.",NA,II century
Netherlands,1899,12632,VENLO 1899,30,156,157,51.37,6.172,"30 denarii: Republic - Marcus Aurelius (AD 161-180), latest coin, AD 156-157.","Rijksmuseum van Oudheden Leiden, Netherlands; inv.no. 17379",II century
Germany,1795,17271,DELMENHORST-DWOBERG,24,185,185,53.0583,8.605,"A hoard of 24 denarii, found on the Dwoberg in 1795. Of these, 22 (Hadrian - Commodus) were found to be in the Oldenburg state museum.",NA,II century
Germany,1854,17333,NIEMEGK,74,119,122,52.07122,12.693924,"A hoard of 74 denarii (Republic- Hadrian), found in 1854 approx. 1 km north of the place, 100 m from the street next to Dahnsdorf behind a hill in a ravine.",NA,II century
"England, United Kingdom",1995,1685,DIDCOT,126,159,160,51.606624,-1.2793979,"The hoard of 126 gold aurei contained within the fragmentary remains of a small pot was discovered while searching with a metal detector on land near Didcot, Oxfordshire, in April 1995. Coins range from Nero to Marcus Aurelius Caesar.",British Museum,II century
Sweden,1851,15592,BJERGES,5,183,184,57.29275,18.49852,5 denarii: Hadrian - Commodus (AD 183-184); silver weight: 14.16 g.,"Swedish History Museum, Stockholm (inv.no. 1748)",II century
France,1856,5940,REZÉ 1856,200,138,161,47.1906,-1.5693,"The hoard comprised a vessel containing more than 200 coins. 13 were shown to the local archaeological society: 6 were 'frustes', 6 of the Antonine family (including Faustina I and II) and one depicted a wolf. Bizeul states that they were all coins of the High Empire. Sanquer suggested that the coin depicting a wolf was a fourth century nummus, but reverse types of the Antonine period also depict the wolf. The three coins of Antoninus Pius and 2 of Faustina given to the museum by Gauja 'found in Rezé in 1851' are likely to come from this hoard. The hoard was found during the building of the east-west road through the city.",NA,II century
Ukraine,2013,18622,STARYIE VALKI 2013 1,55,189,189,49.8679,35.5544,"55 denarii found with a ceramic jar: Galba - Commodus (AD 189). Found one meter from STARYIE VALKY 2013 2, practically, one hoard.",Private collections,II century
Greece,1999,6913,AGIOS ACHILLIOS,7,161,180,40.788,21.079,"During excavations on the site of the ancient town of Lyka, a hoard of 7 provincial coins of the Koinon of Macedonia (Hadrian - Faustina II) was found in trench II, in a very burnt layer, near a cencer and in the same depth with it and nearby silver votive plaques with relief representation. These have been interpreted as remnants of a ritual act, a ""sealed group"" of votive offerings in honour of a deity.",NA,II century
Spain,1982,13020,AMPURIAS - FORUM,4,117,138,42.1325,3.1174,Four asses found during the excavations. To be checked whether were found together.,NA,II century
France,1800,7244,LE VAUMAIN,100,138,161,49.336,1.87,"The hoard comprised 100 Roman coins, including one of Antoninus Pius.",NA,II century
Ukraine,2016,20674,KYIV REGION 2016,291,180,192,50.1812553789,30.2157138996,"A hoard of 291 Roman imperial denarii: Hadrian – Commodus (AD 180-192) and their imitations was found by two treasure hunters in early June 2016 in the Kyiv region. Information about the find and photos of the coins were published by one of the finders on the Ukrainian treasure hunting forum Violity on June 21, 2016. The finder reported that the coins were collected from an area of 3 square meters. The first coins were found at a depth of 10-20 cm, although the pit for their search was dug about 1 m deep. Some coins have traces of bronze oxides. In general, the preservation of coins is good (weak wear). In August 2016, the entire hoard was sold at a Violity auction. The further fate of the coins is unknown.",Sold,II century
Portugal,1877,12894,MEIXEDO,102,161,169,41.757205979668,-8.7043809517757,102 bronze coins found with an amphora and dispersed in the coin trade: Tiberius - Marcus aurelius (AD 161-180).,Dispersed,II century
Czech Republic,2002,15976,RATENICE 2002,11,145,160,50.092361,15.059173,11 denarii found on the same field: Caesar – Vespasian (AD 69-79).,Private collection.,II century
Netherlands,2016,17466,MEIERIJSTAD 2016,96,138,180,51.566562817902,5.4143045617572,"96 coins: 10 silver denarii, 1 quinarius, the other 85 coins are copper asses, dupondii and sestertii, and 1 unknown copper denomination. Other finds include 18 wire fibulae, a fragment of a bracelet and 1 unidentified artefact. Antoninus Pius - Marcus Aurelius (AD 138-180).",NA,II century
Ukraine,1927,18251,MIZOCH 1927,8,183,184,50.399531448646,26.141781328187,"Hoard of denarii dispersed among locals. 88 denarii entered museums' collections. Six denarii can be entered at coin level: Antoninus Pius 1, Lucius Verus 1, Faustina II 3, Commodus 1.","Archaeological Museum, Warsaw (8 coins), Lublin (60 coins), Poland; Local museum, Lutsk (20 coins), Ukraine.",II century
"England, United Kingdom",1974,14931,PIERCEBRIDGE III,10,164,169,54.529849,-1.6770182,"10 coins found compacted together during excavations in Tofts Field in 1974. Recovered from surface of first re-metalling of Dere Street, to the east of the later fort, in Tofts Field.",NA,II century
France,1990,7029,BEAUMONT-SUR-OISE 1990,10,180,192,49.142,2.285,The hoard comprised 10 sestertii from Trajan to Commodus with a tpq of AD 190. TAF interprets the hoard as being a purse drop.,NA,II century
Spain,1901,6238,TORREBLANCA,204,180,192,40.22,0.195,"204 aurei found with a ceramic vessel, 97 pieces studied: Nerva - Commodus.",NA,II century
Sweden,1888,15585,HAVOR,121,194,195,57.191204,18.313522,121 denarii: Vespasian - Septimius Severus (AD 194-195); silver weight: 322.18 g.,"Swedish History Museum, Stockholm (inv.no. 8404)",II century
"Scotland, United Kingdom",1755,1766,KENMORE,14,161,180,56.5878,-4.0023,"A hoard of 12 Roman coins (apparently silver), found in 1755 while building a road from Taymouth to Glenquaich, near the crest of the hill. The same find (but described as 14 denarii) is recorded as having been found while digging the foundations of a tower near Taymouth. The coins are from the Antonine period, none later that Marcus Aurelius. No further details given.",NA,II century
Slovenia,1963,5471,LJUBLJANA 1963 - INSULA XXIX,16,107,110,46.0495,14.501,16 aurei: Vespasian - Trajan (AD 107-110).,"Mestni muzej, Ljubljana, Slovenia",II century
France,1830,5485,LE BUIS,80,180,192,46.029,1.188,More than 80 gold coins were discovered as surface finds between 1830 and 1958: Domitian - Commodus (AD 180-192). Only seven of the coins were described sufficiently well to be accurately identified.,NA,II century
Egypt,1962,7790,ASWAN A48,45,138,161,24.089,32.9,"45 billon provincial coins of Alexandria: Claudius I - Antoninus Pius (AD 138-161). Examined and photographed December 1962 in Athens by Hackens at a dealer of antiquities, who reported the hoard to have been found near Aswan.'",Dispersed,II century
Poland,1948,13520,SWARYCZÓW,95,193,193,50.6453,23.5737,Around 100 denarii found with a ceramic vessel. 95 coins provide information on issuers: Vespasian - Pertinax (AD 193).,NA,II century
Switzerland,1843,6432,BAAR ZG 1843-1860,6,119,122,47.2,8.544,"Six (or more?) Roman gold coins found on a field. First, three were found by labourers in 1845: Domitian (1 coin) and Hadrian (2 coins). Then came a report that ""two years ago"" two aurei of Vespasian had been found in the same field, and probably more, thrown out by the labourers as brass items. In 1860 another gold coin found in the same field was reported. - The 3 aurei found in 1845 were described in detail and documented in sealing wax (lost) and later copied in drawings (preserved).",NA,II century
Serbia,1911,2779,MISAČA,53,156,161,44.359593,20.545705,53 denarii: Galba - Antoninus Pius (AD 156-157).,Zemaljski muzej Bosne i Hercegovine (National Museum of Bosnia and Herzegovina) Sarajevo (32 coins) - 1981,II century
Germany,1964,17041,NIDA 1964,5,141,161,50.1547,8.635,"The hoard (5 bronze coins ranging from Domitian to Faustina I) was found in 1964 northwest of the Jewish cemetery in house pit 27-29 of Ernst-Kahn-straße, in a depth of 30 cm. The coins lay in a varnished pot. The hoard remain in private possession.",NA,II century
France,1923,7387,ARAULES,3,134,138,45.09,4.173,"The hoard was found in a ceramic vessel hidden under a stone and comprised 3 coins including a sestertius of Nerva, a denarius of Trajan and an as of Hadrian.",NA,II century
Netherlands,1990,13959,NEDERWETTEN 1990,21,138,161,51.49,5.518,"Hoard of 21 sestertii. Among them coins of Domitian, Nerva, Hadrianus and Antoninus Pius (AD 138).",NA,II century
Poland,1870,13488,POKRZYWIANKA,153,161,180,50.893889,21.135556,Around 400 denarii of the 1st-2nd centuries AD. 153 provided information on the issuers: Vespasian - Marcus Aurelius (AD 161-180).,"Tsarist Archaeological Comission, St. Petersburg, Russia (153 coins)",II century
"England, United Kingdom",1885,1545,BRIXWORTH,25,180,183,52.322984,-0.90101141,"A hoard of denarii found at Brixworth, in 1892. It is complete except for one denarius of Antoninus Pius of uncertain reverse. Coins range from Vespasian to Crispina.",NA,II century
Sweden,1898,15593,EJMUNDS,14,189,189,57.445989,18.267775,"Originally, 78 denarii, 14 preserved: Antoninus Pius - Commodus (AD 189); silver weight: 36.63 g. (14 coins).","Swedish History Museum, Stockholm (inv.no. 10704)",II century
"England, United Kingdom",1980,14589,BULLOCK DOWN (SITE 16),8,180,183,50.742389,0.22381763,"2nd century. Hoard of 8 coins recovered with a frag. of a bronze vessel, possibly its original container. The coins all exclusively 2nd C terminating with issue of Crispina (AD 177-183), though hoard may have been deposited in 3rd C AD.Rudling, D. 1982. The Romano-British farm on Bullock Down. In P. Drewett (ed.) The Archaeology of Bullock Down, Eastbourne, East Sussex.",NA,II century
Romania,1880,16327,SALONTA,141,180,192,46.802889,21.654794,141 denarii: Republic – Commodus (AD 180-192).,"Hungarian National Museum, Budapest (26 coins)",II century
Netherlands,2015,17469,JUKWERD,14,161,180,53.335001605631,6.8467503566873,"A clump of at least 14 denarii molten together. The only reasonably identifiable coin is one of Antoninus Pius for Diva Faustina I, minted between 141 and 161 AD. Another denarius was likely issued under the authority of Marcus Aurelius.",NA,II century
Poland,2007,13495,PRZEZWISKA,28,194,197,52.1201,19.6482,Around 200 denarii. The person who ppresented 46 denarii mentioned that in total may have found around 200 pieces. Only 28 coins could be described. One denarius of Antoninus Pius was found in 2010: Vitellius - Clodius Albinus (AD 194-197).,NA,II century
France,1969,8672,VIENNE 1969 A,5,134,138,45.532,4.875,Grave find of 5 denarii (1 plated) Vespasian to Hadrian (AD 134-138),NA,II century
France,1885,7052,MARCILLY,2000,192,192,49.037,2.877,"The hoard comprised approximately 2,000 sestertii of the Antonine period.",NA,II century
Belgium,1993,9230,LIBERCHIES 1993-2003,10,117,138,50.5138,4.4212,"10 coins, a finger ring and a fibula in a wooden case with 3 hinges preserved",Musée communal des Beaux Arts et d'Archéologie de Nivelles,II century
"England, United Kingdom",2013,14562,CHURCHSTOW,16,161,176,50.290598,-3.8263201,Treasure numbers associated with this hoard: 2013 T096. Other PAS records associated with this hoard: DEV-269707,NA,II century
Bulgaria,1922,3433,SLATINO,361,117,138,42.161562000000004,23.055081,600 denarii. 361 pieces were examined: Republic - Hadrian (AD 117-138); silver weight: 669.3-1389.9 g.,NA,II century
France,1893,8720,ANNECY V,36,103,111,45.912,6.121,36 aurei: Vespasian - Trajan (AD 103-111) found hidden in the wall of a Roman house.,"Musées d'Annecy, France; only copies",II century
Romania,1987,5489,CISLĂU,244,161,175,45.233,26.382,Unknown initial number of coins. 244 denarii: Nero - Marcus Aurelius (AD 161-175),County Museum Buzău,II century
Slovakia,1904,8204,DRŽENICE,236,161,180,48.286742,18.697001,236 aurei and denarii from the time of Marcus Aurelius (AD 161-180).,NA,II century
Croatia,1919,5396,NOVOSELO,300,161,180,45.899,16.842,c. 300 sestertii from Hadrian to Marcus Aurelius (AD 161-180). No further information about composition of hoard.,"Archaeological Museum Zagreb, Croatia; dispersed; Ervin Meixner coll.",II century
Austria,1989,5433,WIEN - RENNWEG 1989,1268,136,138,48.193,16.392,"1,268 coins: 7 aurei, 1,261 denarii: Republic - Hadrian (AD 136-138). Total weight: 4,023.93g.","Historischen Museum der Stadt Wien (Karlsplatz), Austria",II century
Germany,1985,17314,SCHWEPNITZ,121,163,164,51.32809,13.95772,"A hoard of 121 denarii (Nero - Marcus Aurelius), found at the edge of the gravel pit northeast of Schwepnitz, approx. 0.3 km east of the Schwepnitz - Gottschdorf road.",NA,II century
Romania,1968,16320,PEȘTERA IGLIȚA,28,190,191,47.022191,22.373389,Unknown originally number of coins. 28 denarii are known: Antoninus Pius – Commodus (AD 190-191).,"Muzeul Țării Crișurilor, Oradea, Romania (inv.no. 341).",II century
Netherlands,2017,12636,HAPS 2017,32,197,198,51.69,5.861,"32 coins: 1 republican denarius, 31 bronze coins: Augustus - Septimius Severus (AD 197-198).",NA,II century
Poland,1946,13402,BESIEKIERZ NAWOJOWY,26,193,196,51.9608,19.4879,Over 26 denarii found with a ceramic vessel: Hadrian - Septimius Severus (Julia Domna) (AD 193-196).,"Museum of Archaeology and Ethnology, Łódź, Poland (2 coins)",II century
Luxembourg,1983,12838,GIVENICH,26,195,195,49.748,6.479,26 sestertii: Trajan - Septimius Severus (AD 195).,André Schoellen,II century
Russia,1960,18347,KRASNAYA BATAREYA,89,154,170,45.086142983524,37.788520088586,"Hoard of 89 coins of the Bosporan kings: Sauromates I, Cotys II, Rhoemetalces, Eupator.",NA,II century
Albania,1941,9351,DURRËS 1941,3901,170,175,41.325,19.456,"This hoard was found in three ceramic pots and contained more than 4000 silver coins from which H. Ceka has published a total of about 3900 Roman Imperial coins in 1958. According to the publication of the hoard, which refers to the inquiry held by the Albanian Institutions at the time of the discovery, the hoard was constituted by silver coins and gold jewelry (rings, necklaces) but the latter was dispersed immediately after the discovery. Also, more than 100 coins were dispersed after the discovery. The coins are mostly Denarius dating from Nero to Marcus Aurelius (54-175 AD). Based on the numismatic data (there is no archaeological excavation that can help at the precision of the hoard's burying date), it should have been buried around or short after 170 AD.","The hoard is actually part of the collection of the Coin Cabinet, Institute of Archaeology, Albania",II century
Israel,2004,7722,ḤORBAT PETORA (NORTH),29,120,121,31.743842759028,34.99526994539,The hoard comprised 26 bronze coins and 3 silver coins dated between the reigns of Vespasian and Hadrian.,Israel Antiquities Authority (IAA 108487-108515),II century
Italy,1875,16189,PAGOGNA,35,138,161,46.07305,12.098898,"35 bronze coins: medallions and coins: Nero, Vespasian, Titus, Trajan, Hadrian, Antoninus Pius (AD 138-161).",NA,II century
"Israel, Palestinian Territories",1971,8495,IDNA 1971,45,132,136,31.557,34.979,The hoard comprised approximately 10 tetradrachms and 35 denarii from the Second Jewish Revolt (AD 132-136).,NA,II century
Romania,1968,16297,MĂGIREȘTI,189,176,177,46.5082,26.5475,189 denarii: Nero – Marcus Aurelius (AD 176-177).,"History Museum of Moldova, Iași (134 coins), History Museum ""lulian Antonescu"", Bacău (21 coins), History Museum, Onești (13 coins); Museum of History and Archaeology Piatra-Neamț (22 coins)",II century
Romania,1913,12027,DĂENI 1913,15,117,138,44.849,28.128,14 Roman bronze coins and one autonomous Histrian coin found in a small ceramic vessel: Hellenistic - Hadrian (AD 117-138),"Coin Room, Institute of Archaeology, Bucharest, Romania",II century
Belgium,1876,6115,ACOZ,150,138,161,50.359,4.534,"150 coins, of which 10 sestertii: Nero - Antoninus Pius (AD 138-161).",NA,II century
France,1875,7068,SAINT-MARD,30,138,161,49.041,2.702,The hoard comprised a broken ceramic vessel containing 30 bronze coins of Antoninus Pius. A bronze bell was found at the same findspot.,NA,II century
France,1978,5484,SEYSSEL 1978-1980,188,177,186,45.95,5.85,"188 bronze coins fund in a ceramic vessel: 151 sestertii, 16 dupondii, 4 dupondii/asses, 17 asses: Domitian - Marcus Aurelius (AD 177).",NA,II century
Romania,1851,16322,PLOPANA,300,161,180,46.680208,27.220599,"Over 300 denarii, only 8 coins were seen: Antoninus Pius 1, Antoninus Pius (Faustina I/Diva Faustina I) Marcus Aurelius 2, Marcus Aurelius (Faustina II/Diva Faustina II), Marcus Aurelius (Commodus Caesar), Marcus Aurelius (Lucilla).",NA,II century
Germany,1951,6947,GAUTING 1951,31,114,117,48.06,11.376,A hoard of 30 denarii and 1 as (Republic - Trajan) found by the west wall of a plaster layer during an excavation on Reismühler Straße.,NA,II century
Germany,1924,16762,EISENBERG,16,119,122,49.5567,8.0771,"16 denarii (Galba - Hadrian) coins were found, covered with a terra sigillata plate, on Tiefenthaler Str.",NA,II century
Germany,1858,17263,FILSUM 1858-1960,6,186,192,53.240922,7.62654,"A very large find of Roman denarii, made in 1858 in the vicinity of Filsum. Around 1960, three further denarii (Domitian Caesar, Commodus) were found on a field, and can probably be connected with the same find.",NA,II century
"England, United Kingdom",2013,14591,HONITON 2013,15,193,195,50.811291,-3.2078138,15 AE to AD 195.,NA,II century
Sweden,1857,15595,SANDA,5,186,186,57.428889,18.229138,"Originally 5 denarii, 1 preserved: Hadrian - Commodus (AD 186). Found together with 1 gold finger ring, 3 silver finger rings.","Swedish History Museum, Stockholm (inv.no. 2409)",II century
Netherlands,1889,9905,GRONINGEN 1889,8,187,188,53.232,6.563,8 sestertii: Antoninus Pius - Commodus (AD 191-192).,Groninger Museum (GRM find X) 1964/XII-63/1-7 en 63a (no. 7),II century
Germany,1850,17039,NIDA 1850,370,139,139,50.155,8.6341,"The hoard was discovered in 1850 by a private person during a search quarry stones. The coins lay concealed without a discernible container in the wall aperture of a Roman cellar (Quintan- obere prätorische Straße)). The hoard is thought to have comprised 360-370 denarii. 280 of them are now in the collection of antiquities from Nassau, in Wiesbaden. Coins range from Nero to Antoninus Pius.",NA,II century
Poland,1939,16210,GRABOWNICA STARZEŃSKA,6,161,180,49.659366,22.073807,"Hoard of 6 Roman coins, most likely denarii, including: Vespasian, Antoninus Pius, Marcus Aurelius (AD 161-180).",NA,II century
Greece,1998,6909,DION 1998,81,138,161,40.17724,22.49293,"81 bronze coins (72 Dium, 3 Thessalonica, 1 koinon of Macedonia, 1 Philippi, 1 koinon of Thessaly, 3 Roman bronzes) ranging from Domitian to Antoninus Pius, found in the foundation level besides the east wall of the first (western) room excavated at the place of the former sanctuary of Zeus Olympios, next to two other hoards (Dion 1999 and Dion 2000). All three hoards were buried in clay vases. The exact function of the area where the hoards were found is unclear, but the hellenistic sanctuary of Zeus Olympios had been transformed in Roman times, the wall of the temenos built over, and a theatre established.",NA,II century
Israel,2009,7595,TE'OMIM CAVE (B),10,132,136,31.726233729437,35.020295136245,The hoard comprised 9 silver coins and 1 bronze coin dated to the second century AD.,Israel Antiquities Authority (IAA 135172-135181),II century
Romania,1980,16284,ROMULA 1980,5,138,161,44.172776,24.394511,Five denarii found together: Vespasian – Antoninus Pius (AD 138-161).,"Museum of Oltenia, Craiova, Romania",II century
Italy,1812,14251,SUSA,3561,169,169,45.137538,7.057285,"3,561 coins of Lucius Verus.",NA,II century
"Israel, Palestinian Territories",1982,8515,HEBRON 1982,53,132,136,31.533,35.1,The hoard comprised a few tetradrachms and approximately 50 denarii from the Second Jewish Revolt (AD 132-136).,NA,II century
"Israel, Palestinian Territories",1995,8173,KHIRBET BADD 'ISA 1995-1997 B,146,124,128,31.933,35.043,"The hoard comprised 144 silver and two gold coins dated between 32-31 BC and AD 124-128, buried in a clay juglet.",NA,II century
Belgium,1850,8531,SAINT-LÉGER 1850 1,2,161,169,50.705682,3.314077,2 aurei of Domitian and Marcus Aurelius (Lucius Verus).,NA,II century
Austria,1979,13273,URSCHENDORF,5,152,153,47.783,16.094,"5 coins found scattered near a disturbed grave within a cremation necropolis: Hadrian 1 as, Antoninus Pius 4 sestertii (AD 152-153).",NA,II century
Egypt,1905,7808,EGYPT A66,50,161,180,26.821,30.802,50 denarii: Vespasian - Marcus Aurelius (AD 161-180). No information about circumstances.,Dispersed,II century
Ukraine,2021,18662,DMYTRIVKA,10,163,164,46.643109697967,31.718167102267,"Ten Roman imperial denarii were found in the vicinity of ancient Olbia, to the west of Adzhigolskaya Balka, near the villages of Dmitrivka and Ivanivka (the exact location is not known). The coins have been identified by V. Stolba and U. Peter from photographs. The cirent location of the hoard is unknown.",unknown,II century
Italy,1857,13776,DESULO,2,161,180,40.013818,9.23111,"The sculptor Zanda of Desulo discovered a deposit of Roman bronze coins, near the church of San Pietro. One of them belongs to Faustina I and one to Lucilla.",Lost,II century
Georgia,1985,16032,MTSKHETA – SAMTAVRO 1985,34,117,138,41.846495,44.71892,"Coins found in sarcophagus no. 905: 34 gold and silver coins: 3 Aurei: Nero 2, Hadrian 1; 14 denarii: Augustus 12,Uncertain (Augustus?) 2; 1 hemidrachm of Hadrian, and 16 drachms of Gotarzes II.","National Museum of Georgia, Tbilisi",II century
Belgium,1630,8398,KORTRIJK 1630,2,161,180,50.8278,3.2649,"Some coins, unknown denomination, of Nerva, Trajan and Marcus Aurelius",NA,II century
Belgium,1850,6178,WORTEGEM,28,138,161,50.853,3.513,28 sestertii: Hadrian - Antoninus Pius (AD 138-161).,"Collection E.C. Lefèvre, Brugge, Belgium, in 1851 (28 coins)",II century
Poland,1937,5266,PRZEWODÓW,150,186,187,50.47,23.934,"Few hundreds, 150 were documented: Republic - Commodus (AD 186-187).","National Museum, Krakow, Poland (20 coins)",II century
Sweden,1847,15607,"ÖJA - ""ALLMÄNNINGEN"" 1847",6,161,180,57.035593,18.299961,"6 denarii: Trajan, Hadrian, Antoninus Pius, Faustina II (AD 161-180)",NA,II century
Netherlands,1993,9998,RIED 1993,16,192,192,53.2233,5.5908,16 denarii: Antoninus Pius - Commodus (AD 192).,Private collection,II century
Sweden,1869,15613,GOTLAND 1869 - UNKNOWN FINDSPOT,22,194,194,57.506233,18.450162,22 denarii: Trajan - Septimius Severus (AD 194).,"Swedish History Museum, Stockholm (inv.no. 1092)",II century
Ukraine,2018,20673,LVIV REGION 2018,757,180,192,49.5661221128,23.665240951,"A hoard of 757 Roman Imperial denarii and a silver ingot was discovered by a treasure hunter on January 11, 2018 in the Lviv region. Information about the find, the silver ingot and a general photo of the bunch uncleaned coins were published on the Ukrainian treasure hunter forum Violity on 11 and 12 January 2018. According to the finder, the hoard was discovered in the forest at a depth of 30-40 cm. Initially a few slipped coins were found, and then the rest of the hoard. Among the coins, a silver ingot (ca. 8.7x1.5 cm) and a fragment of pottery were found. Only photos of 17 coins and the silver ingot were published separately. The further fate of the hoard is unknown, however, most probably it was sold at the Violity auction. Coins: Nerva (1), Hadrian (4), Hadrian (Aelius) (1), Hadrian (Antoninus Pius) (1), Antoninus Pius (3), Antoninus Pius (Diva Faustina I) (1), Marcus Aurelius (3), Marcus Aurelius (Lucius Verus) (1), Marcus Aurelius (Lucilla) (1), Commodus (1), no information (740).",Sold,II century
Russia,2008,18566,KOPORIE 2008 1,30,161,180,59.706733335392,29.087681064564,30 bronze coins: Trajan - Marcus Aurelius (AD 161-180). Found 800 m eastward from the hoard Koropie 2008 2,"Laboratory of Archeology, Historical Sociology and Cultural Heritage, Faculty of Sociology, St. Petersburg State University, Russia",II century
Romania,2015,16474,DRAGOMIREȘTI,92,175,175,47.007431,26.553233,"92 silver coins, 90 denarii, 2 drachms of Lycia: Nero - Marcus Aurelius (AD 175); weight: 292.04 g.","Muzeul de Istorie și Arheologie, Piatra Neamț, Romania (inv.nos. 28530-",II century
Georgia,1946,16042,MTSKHETA – BAGINETI 1946 2,8,138,161,41.838785,44.709436,"Four gold coins found in a stone sarcophagus during excavations: Vespasian, Titus, Hadrian 2. Together were found four denarii: Augustus, Trajan, Hadrian, Faustina I. Together were found gold and silver jewellery, vessels, glass objects.","National Museum of Georgia, Tbilisi",II century
Hungary,2009,16617,KOMÁROM-SZŐNY 2009,4,121,122,47.733475,18.156686,"Purse(?) of four sestertii: Trajan 2, Hadrian I 2 (AD 121-122) found near a wall in the area of the civil town.","Klapka György Museum (Komárom), Hungary (inv.nos. 2009. K17.098.1-4)",II century
Switzerland,1920,6529,ALLAMAN VD 1920,100,180,183,46.469308639871,6.4005748326422,"A hoard of approximately 100 sestertii, dupondii and asses (Augustus - Commodus), found 500 m east of the village of Allaman, while digging the ground to install phone cables. 58 coins are preserved today (= ca. 60% of the hoard). The coins were heavily worn.","Musée cantonal d'archéologie et d'histoire, Monnaies et Médailles, Lausanne",II century
Netherlands,1997,9841,ALPHEN AAN DEN RIJN 1997,5,180,180,52.12795,4.660886,"1 silver + 4 bronze coins: (1st century -2nd century AD), Augustus - Commodus (AD 192) found during archaeological excavations.",Municipality Alphen aan den Rijn,II century
India,1983,18555,VALUVALLY,263,145,161,10.118056,76.256389,A hoard of Roman aurei and their imitations was discovered in an earthen pot: Nero - Antoninus Pius (AD 145-161).,"Numismatic Study Centre, Nedumangadu",II century
Poland,1935,13403,BIŁGORAJ,200,186,187,50.540833,22.721944,Several hundred denarii found with an iron jar. Only six provided data on the issuers: Hadrian - Commodus.,"National Museum, Krakow, Poland (25 coins)",II century
Tajikistan,1930,17586,MUJUM,300,185,185,39.875060438664,69.187965888178,"A hoard of 300 Roman denarii ranging from Vespasian to Commodus (AD 74). Only 19 coins have been recorded. Based on the portrait style, the coins seem to be imitations of known genuine types.","Private collection A.A. Tarpi, Dushambe, Tajikistan",II century
Poland,2020,16568,CICHOBÓRZ,1776,197,198,50.704497021273,23.975766337211,"1,776 denarii (5.5 kg): Vespasian - Septimius Severus (AD 193-211). Most likely were kept in a wooden box, as eight silver rivets ""have been discovered at the site"".","Museum, Hrubieszów, Poland",II century
France,1936,6331,VILLEURBANNE 1936,45,103,111,45.775,4.851,Unknown originally number of aurei. Forty-five coins from Nero to Trajan were recovered. Seventeen coins were studied in detail. Nine coins were acquired in 1937 by the mayor of Villeurbanne.,Mayor of Villeurbanne (9 coins) in 1937,II century
Serbia,1882,16618,VELIKO ORAŠJE,202,117,138,44.360662,21.073992,Over 200 silver coins from Vespasian to Hadrian (Ad 117-138). No detailed information.,M. Stojanović (former); M. Vujičić; dispersed,II century
Poland,1926,13529,TUREK - SURROUNDINGS,600,180,192,52.017532,18.494011,Around 600 denarii of which only 17 provide information on issuers: Vespasian - Commodus (AD 180-192).,"Archaeological Museum, Łodz, Poland (3 coins)",II century
Poland,1903,13647,DURĄG,2,169,170,53.613983,20.026722,"Two denarii found together: Hadrian, Marcus Aurelius.",NA,II century
Algeria,1969,16909,GUELMA 1969,5,114,117,36.4681,7.432,"Unknown number of aurei and silver coins found with a ceramic vessel. Only five aurei were seen: Trajan 4, Trajan for Plotina 1.",NA,II century
France,1837,5784,LA HAYE-MALHERBE 1837,60,176,180,49.22299,1.065632,"The hoard comprised a 'vessel containing 60 aurei, of which 17 were bought by the Cabinet des Médailles and 2 by the Musée de Rouen, although neither acquisition can be found today.'",NA,II century
Austria,1980,13269,PARNDORF 1980,48,141,161,47.995,16.858,49 denarii found with a ceramic vessel: Republic - Antoninus Pius (AD 141-161).,NA,II century
Bulgaria,1978,2681,SILISTRA 1978,35,161,162,44.121,27.259,35 denarii: Mark Antony - Marcus Aurelius (AD 161-162).,"History Museum, Silistra, Bulgaria; Inv.nos. 6059-6093",II century
France,2013,13955,MANDEURE,15,190,191,47.4495,6.7964,15 sestertii as a foundation offering: Trajan - Commodus (AD 190-191).,"Musée monétaire cantonal, Lausanne, Switzerland",II century
Slovenia,1850,8963,PLANINA PRI SEVNICI 1850,150,161,180,46.104,15.405,Circa 150 bronze coins. Only 2 sestertii and 2 dupondii of Antoninus Pius and Marcus Aurelius were seen.,Dispersed,II century
"Scotland, United Kingdom",2008,18576,CLARKLY HILL,86,180,191,57.6967,-3.461,86 denarii: Mark-Antony - Commodus (Crispina) (AD 180-191).,NA,II century
Romania,1868,16268,LĂPUȘNIC,62,117,138,45.893161,21.920157,"Hoard of at least 62 denarii. Only 13 are known: 8 republican among which Julius Caesar 1, Augustus 3, Hadrian 2.",NA,II century
Sweden,1887,15522,GYLE,2,141,161,57.426478,18.613831,"Grup of two denarii: Antoninus Pius, Antoninus Pius (Diva Faustina I); silver weight: 5.32 g.","Swedish History Museum, Stockholm (inv.no. 8217)",II century
"England, United Kingdom",1888,2341,WANBOROUGH(?),22,138,192,51.536552,-1.7130393,"A concealed hoard of 22 aurei of 'Nero, Hadrian and the Antonines' found c. 1888. It is believed that the hoard was from Wanborough / Durocornovium, but this is not certain.",NA,II century
Poland,1874,13415,DOROTOWO,600,161,180,53.695833,20.4125,Around 600 denarii; Republic - Marcus Aurelius (AD 161-180).,"In 1906, there were 355 coins in the Coin Room of the Royal Academy in Königsberg, 16 copies in the Museum of Prussia, Königsberg. The fate of the rest is unknown. Approximately 250 denars were melted down. Lost",II century
Poland,2005,13683,ŁANIEWO,2,185,185,54.098294,20.446941,"Two denarii found on a field: Antoninus Pius, Commodus (AD 185).",Private collection,II century
Greece,1999,6910,DION 1999,1590,138,161,40.17724,22.49293,"1590 bronze coins (1452 Dium, 47 koinon of Thessaly, 39 koinon of Macedonia, 13 Thessalonica, 7 Philippi, 2 Edessa, 2 Corinth, 1 Amphipolis, 1 Magydus, 1 Tralleis, 10 uncertain, and 15 Roman bronzes), ranging from Claudius to Antoninus Pius, found in the foundation level besides the west wall of the first (western) room excavated at the place of the former sanctuary of Zeus Olympios, next to two other hoards (Dion 1998 and Dion 2000). All three hoards were buried in clay vases. The exact function of the area where the hoards were found is unclear, but the hellenistic sanctuary of Zeus Olympios had been transformed in Roman times, the wall of the temenos built over, and a theatre established.",NA,II century
France,1909,5684,LA FEUILLIE,100,161,180,49.462537,1.5140229,The hoard comprised 'a vessel containing 100 sestertii': Antoninus Pius - Marcus Aurelius (AD 161-180).,NA,II century
Austria,1908,6154,GUMMERN,126,166,167,46.655,13.769,"126 bronze coins:120 sestertii, 5 dupondii, 1 as: Vespasian - Marcus Aurelius (AD. Only 73 coins are kept in the museums' collections.","Landesmuseum, Klagenfurt; Stadt Museum Villach, Austria. (73 coins)",II century
Spain,1996,12885,ALORIA B,30,147,148,42.996,-2.982,30 sestertii found stuck together in a Roman edifice: Vespasian - Marcus Aurelius (AD162-163).,"Museo de Arqueología de Álava, Spain",II century
Romania,1966,2612,GÎRLA MARE,320,179,180,44.221,22.75,"320 D: Mark Antony - Commodus (AD 180): Discovered in an onion field after it had been ploughed. The finder carefully collected the coins together, but discarded fragments of the pottery container. Found whilst harvesting onions in a field in the north-western part of the village, next to the road leading to Gruia.",NA,II century
Austria,1985,2856,NEUNKIRCHEN,175,166,180,47.717,16.083,"175 silver coins: 173 denarii, 1 quinarius and 1 drachm: Republic - Marcus Aurelius (AD 161-180).","Stadtmuseum, Neunkirchen (165 coins), private collection? (10 coins), Austria; lost (unknown no.)",II century
Romania,1932,8937,PLOIEȘTI,12,114,117,44.951,26.015,12 denari: Vespasian - Trajan (AD 114-117).,"Institutul de Arheologie, Bucharest, Romania",II century
Bulgaria,1965,3011,SEIDOL,103,197,198,43.402,26.51,103 denari: Vitellius - Septimius Severus (AD 197-198); silver weight: 262.8-420.7 g.,"History Museum, Razgrad, Bulgaria; inv.no. IF, hoard 12 (103 coins).",II century
Bulgaria,1965,2680,GIGEN 1965,91,138,161,43.708,24.465,Unknown initial number of coins. 91 denarii in the Regional History Museum in Pleven: Otho - Antoninus Pius (AD 138-161).,"Regional History Museum, Pleven, Bulgaria; inv.no. 975 1-70",II century
India,1945,18599,POONJAR,6,138,161,9.674369,76.808669,Six aurei Possible part of a larger hoard.,NA,II century
Spain,1913,12891,SALVATIERRA DE MIÑO,40,138,161,42.0805,-8.5037,40 bronze coins were discovered with a ceramic vessel. Only 24 have provided some information: Nero - Antoninus Pius (AD 138-161).,Lost,II century
Bulgaria,1914,2783,MEDOVNITSA,27,161,180,43.655,22.779,27 denarii: Vespasian - Marcus Aurelius (AD 161-180).,NA,II century
Netherlands,2012,9868,CUIJK 2012,16,117,138,51.729,5.879,16 coins of Hadrian (AD 117-138). No further information.,NA,II century
Germany,1872,17270,THÜLE,10,175,192,52.963323,7.918203,"Ten denarii (Vespasian - Commodus), found in 1872 during peat digging. Two thereof arrived in the Oldenburg archive; an additional three were noted in 1905 in private possession.",NA,II century
Poland,2018,13416,DRELÓW,75,161,180,51.912778,22.871111,75 denarii: Trajan - Marcus Aurelius. No further details.,"Museum of Southern Podlasie, Biała Podlaska, Poland",II century
Spain,1614,6153,GUADARRAMA,200,161,180,40.6731798,-4.0875528,200 aurei: Galba - Marcus Aurelius (AD 161-180).,NA,II century
Ukraine,1887,18213,KYIV 1887,26,180,192,50.514704234981,30.586386369441,Hoard of circa 350 silver coins. 26 denarii: Vespasian - Commodus (AD 180-192). A tetradrachm of Thassos (intruder?) were documented.,"Museum of Divinity, Kyiv, Ukraine .",II century
Czech Republic,1893,15886,CERHENICE,2,161,169,50.069755,15.0706,"Two denarii: Antoninus Pius, Marcus Aurelius (Lucius Verus/Divus Lucius Verus) (AD 161-169). Militky considers a misidentification of this hoard with the one Dobřichov-Plaňany (PLAŇANY 1892).","National museum, Prague, Czech Republic",II century
"Scotland, United Kingdom",2016,18592,CREETOWN,14,117,138,54.9015,-4.3799,14 denarii: Domitian 3; Nerva 3; Trajan 6; uncertain (Domitian or Trajan) 1; Hadrian 1 (AD 117-138).,NA,II century
"Scotland, United Kingdom",1803,1135,STRATHAVEN,400,172,192,55.62441,-4.16187,"A hoard of about 400 Roman silver coins, found at Torfoot, 7 miles south-west of Strathaven, in a glass bottle, while cleaning a drain. Coins of Trajan, Antoninus Pius, Faustina, wife of Antoninus, Crispina, wife of Commodus, and various other Emperors and Empresses, &c., all in good preservation, are mentioned. About fifty of the coins were so much verdigreated and adhering together, that they were broken with a hammer by a rude and unskillful hand, in order to separate them. J. Lindsay, View of the Coinage of Scotland (1845), 265, added Hadrian, Marcus, Caesar, Pompey and Crassus to the list of emperors etc. represented. The three last names may have been due to a misunderstanding of the legends on some coins. True Republican den. would be unusual in a hoard as late as the reign of Commodus.",NA,II century
Spain,1997,12897,ALORIA A,16,162,163,42.996,-2.982,16 sestertii found stuck together in a Roman edifice: Vespasian - Marcus Aurelius (AD162-163).,"Museo de Arqueología de Álava, Spain",II century
Poland,1875,16201,MACIEJOWICE,32,193,193,52.046747,22.575385,Unknown original number of denarii. 32 denarii have been studied: Vespasian - Septimius Severus (AD 193).,NA,II century
Belgium,1607,8261,MESPELARE,800,172,175,50.996,4.069,(8-900) 52 aurei: Domitian - Marcus Aurelius (AD 172-175).,"Collection Rockox (37 coins), in 17th century; collection Van Gestel (1 coin), in 17th century; collection Christine de Suède (non-identifiable)",II century
Belgium,1873,3241,FONTAINE-VALMONT 1873,400,117,138,50.318,4.216,(c. 400) 3 denarii: Nero - Hadrian (AD 117-138).,"Archaeological Museum Charleroi, Belgium 13 coins, only 5 retrieved)",II century
Ukraine,1952,2998,POGORELOYE,450,194,195,48.632949622777,29.956543778457,"Hoard of 450 denarii found with a ceramic vessel covered by another pot: Vespasian - Septimius Severus (Clodius Albinus Caesar) (AD 194-195). Weight: 983 g. According to Kropotkin, the hoard ends with the coin of Clodius Albinus as all the coins of Septimius Severus are issues of AD 193-194.","Local History Museum, Uman, Ukraine (inv. nos. 1675/2760 et 2355/3440)",II century
France,1987,5240,AMIENS 1987,43,148,149,49.891,2.3,"The hoard was found in the foundation trench of a Gallo-Roman wall. It comprised 43 denarii from Vitellius to Marcus Aurelius as Caesar (AD 148/149). It may originally have been placed in a small box, as fragments of copper-alloy scrap were found in association with the coins.",NA,II century
France,1911,5618,HAILLICOURT,59,186,187,50.474691,2.5843569,"The hoard apparently comprised 68 denarii, although the catalogue gives a total of 59 coins.",Mr. Elby collection (in 1931),II century
Poland,1881,13651,GDAŃSK KRAKOWIEC,15,180,192,54.36048,18.737041,"15 sestertii of which Antoninus Pius 1, Faustina II 1, Commodus 1 were found by fishermen in a dune.",Lost,II century
Lithuania,1943,15454,NOREIŠIAI,5,138,161,55.714077,23.029578,"Circa 150 coins found with a ceramic vessel. Only 5 sestertii are known: Hadrian 1, Antoninus Pius 1, Faustina I (Diva) 1, 2 uncertain issuer.","Museum ""Ausra"" Šiauliai, Lithuania",II century
Ukraine,2015,18633,VYRIVKA,60,193,194,51.275537342248,33.138629431399,"60 denarii found, probably, with a ceramic vessel: Trajan - Septimius Severus (AD 193-194).",NA,II century
Italy,1988,17460,TINDARI,13,166,166,38.1421,15.0444,"13 bronze coins: 9 sestertii, 4 asses: Domitian - Marcus Aurelius Aurelius (AD 166).","Antiquarium, Villa Romana di Patti",II century
Romania,1919,16419,DEVA 1919,10,138,141,45.8823,22.9051,"Unknown originally number of denarii. 8 denarii, 1 drachm of Dyrrachium and 1 denarius Antoninus Pius (Faustina I/Diva Faustina I) were recovered.",NA,II century
Greece,2006,6902,PELLA WEST CEMETERY 2006 (KER. 23),2,147,161,40.763,22.526,"A hoard of two Antonine sestertii and several items of gold jewellery, found in grave 23 in the western cemetery of Pella.",NA,II century
Germany,1951,17222,JÜLICH 1951,5,164,176,50.921116,6.361762,"Five 2nd century AD bronze coins, found in the area of the town hall.",NA,II century
Romania,1960,16304,STĂNIȚA,12,173,174,47.008128,27.105199,"12 denarii, of which 10 plated, were found with a ceramic vessel in a garbage pit: Trajan 3, Antoninus Pius 2, Antoninus Pius (Diva Faustina I) 3, Antoninus Pius (Faustina II) 2, Marcus Aurelius 1, Marcus Aurelius (Lucius Verus) 1 (post AD 173-174).","History Museum, Roman, Romania",II century
Poland,1800,13565,SZYMISZÓW - SURROUNDINGS,10,161,176,50.519334,18.246699,10 denarii found within a cemetery together with other objects. The antoninianus (radiate) of Aurelian may be an intruder.,"Initially in the collection of Councilor Scotti, later in the Museum of Wroclaw, Poland; today, lost.",II century
"England, United Kingdom",2011,14862,AMBER VALLEY 2011-13,9,166,180,53.055049,-1.4643516,"6 sestertii recorded with the PAS, 3 further from excavation of the site (see Amber Valley barbarous radiate hoard). Not classed as Treasure.",NA,II century
Czech Republic,1890,15881,SV. DOBROTIVÁ,3,138,161,49.74044,13.599445,"Group of 3 denarii: Nerva, Trajan, Antoninus Pius (AD 138-161).","Regional museum, Plzeň, Czech Republic",II century
Poland,1830,13413,CZERWIĘCINO,4,141,161,54.066172,15.805078,At least 4 denarii found on a field: Hadrian - Antoninus Pius (Diva Faustina I).,"Kulturhistorisches Museum Stralsund (4 coins), Germany (inv.no. 1962:240a-d)",II century
Hungary,1920,13135,ZALAHOSSZÚJFALU 1920,350,161,180,46.761,17.103,Unknown initial number of coins found with a ceramic vessel. 350 coins were basically examined : Vespasian - Marcus Aurelius (AD 161-180).,"Balaton Museum Keszthely (312 coins); Magyar Nemzeti Muzeum, Budapest (38 coins), Hungary",II century
Germany,1897,17008,KASTELL SAALBURG 1897-1908,7,179,179,50.27146,8.56672,"6 denarii and 1 AE coin, ranging from Domitian to Commodus, found in cellar 207 between 1897 and 1908. These 7 coins of this find were not identified according to inventory number or type and could thus not be separated out from the list of single finds.",NA,II century
Israel,1952,7704,TIBERIAS 1952,218,117,119,32.7844,35.5428,The hoard comprised 218 Syrian tetradrachms from the reigns of Nero to Hadrian.,Israel Antiquities Authority (208: IAA 28249-28456),II century
Israel,2003,7726,AKKO-PTOLEMAIS 2003,46,118,118,32.924304526069,35.083627726053,The hoard comprised 46 tetradrachms dated between AD 60/1 and AD 118.,Israel Antiquities Authority (IAA 106202-106247),II century
Ukraine,2017,20706,PYSARIVKA,20,161,180,49.5213831787,28.4543991777,"A hoard of about 20-25 Roman imperial denarii: Trajan - Marcus Aurelius (AD 161-180) was discovered by treasure hunter in the late 2010s between the villages of Pysarivka and Hrushkivtsi in the Vinnytsia region. The coins were found on an area of ca. 20x20 m and all had the same traces of bronze oxides. The finder did not provide a photo of the coins, but said that among the coins were denarii of Trajan, Hadrian, Antoninus Pius, Faustina (I or II?), Marcus Aurelius (including those with the rank of Caesar). The further fate of the coins is unknown.",NA,II century
"England, United Kingdom",2005,14787,HORSEHEATH 2005-11,4,195,195,52.097916,0.3490197,Four coins on PAS database centered to village - possibly a hoard or addenda to one of the previous hoards?Other PAS records associated with this hoard: CAM-531F17,NA,II century
Poland,1887,13429,GOLE,8,152,152,52.165833,20.497222,"Around 200 denarii of which only 8 have provided information on the issuers: Vespasian 1, Trajan 3, Hadrian 2, Antoninus Pius 2.",NA,II century
France,1963,5495,BORDEAUX 1963,86,197,197,44.838,-0.579,"The hoard comprised 86 sestertii from Vespasian to Septimius Severus, although the author proposes a deposition date in the reign of Postumus.",NA,II century
Hungary,1925,5233,TISZANAGYRÉV,62,134,138,46.946,20.144,62 denarii: Nero - Hadrian (AD 134-138).,"Magyar Nemzeti Múzeum, Budapest, in 1925",II century
Bulgaria,1940,10110,MIZIA,50,161,180,43.687,23.853,50 denarii found in a ceramic vessel: Vespasian - Commodus (AD 180-192).,NA,II century
Spain,1981,12878,LA BÓVEDA,12,125,127,38.321,-6.775,12 denarii found with a ceramic vessel: Vespasian - Hadrian (AD 125-127).,NA,II century
Germany,1870,17337,NAUEN,5,164,169,52.606527,12.883068,"A hoard of 5 denarii (Vitellius - Lucilla), found while digging peat not far from Nauen. A connection with the hoard of BUCHOW-KARPZOW (ID 17335) has been postulated.",NA,II century
Germany,1836,17363,GÜNSTEDT,230,193,197,51.221634,11.081359,"A hoard of denarii, found in an earthenware container, together with three silver bracelets, during the construction of the road from Kindelbrück to Weißensee, under an area of arable land. The content of the hoard was dispersed, but it could have amounted to more than 230 denarii.",NA,II century
"England, United Kingdom",1991,14775,"ROWLER MANOR ROMAN VILLA, CROUGHTON 1991",6,164,169,52.010812,-1.2146461,"Roman settlement at Rowler Manor Estate first recorded in 1991 during archaeological watching brief, when Roman pottery & two coin hoards were recovered. Later investigation revealed stone building remains & 4th C. mosaic floor. APs suggest this just one of many buildings in much larger complex over 5ha in extent.During work in 1991, 6 sestertii found as small hoard, initially by detectorists. Coins stuck together in a column after probably being kept in a narrow textile wrapping/bag. Coins from Trajan to Lucilla.Guest, P. 2008. The Roman coins. In M. Dawson Excavation of the Roman villa and mosaic at Rowler Manor, Croughton, Northamptonshire. Northamptonshire Archaeol. 35: 45-93. Hoard identified by Curteis 2003.",NA,II century
Netherlands,1878,9886,EENUM,40,159,160,53.339,6.78,Around 40 silver coins. Only 4 denarii of Antoninus Pius are known.,NA,II century
Germany,1870,16598,BURG DELLINGEN BEI BRUGGEN,27,145,176,47.92439,8.41776,27 bronze coins (Tiberius - Marcus Aurelius) found in an ash layer covered by a stone and interpreted as a votive deposit.,NA,II century
France,1881,7344,CLERMONT-FERRAND 1881,100,138,180,45.776,3.083,"The hoard comprised an earthenware vessel containing 100 Roman coins including denarii, sestertii and dupondii, nearly all issues of Antoninus Pius, Faustina I and Faustina II.",NA,II century
Sweden,1836,15531,BRO,35,180,192,57.670695,18.481777,35 denarii found among stones: Vespasian - Commodus (AD 180-192). Only two coins are preserved,"Swedish History Museum, Stockholm (inv.no. 725), 2 coins",II century
Ukraine,2021,20718,POLTAVA REGION 2021,10,180,192,49.7208122793,33.7496120281,"A small hoard of 10 Roman imperial denarii: Hadrian – Commodus (AD 193-211) was discovered by a treasure hunter in March 2021 somewhere in Poltava region. Information about the find and photos of the coins were published on the Ukrainian treasure hunter forum Violity, March 18, 2021. The finder reported that the coins were discovered “in one pit”. The further fate of the hoard is unknown.",NA,II century
Ukraine,2013,20682,CHERNIVTSI REGION 2013,111,145,161,48.2498156192,25.7921321256,"A hoard of 111 Roman imperial denarii was found by five treasure hunters in 2013 in Chernivtsi region. Information about the find and photos of some of the coins of the hoard were published by one of the finders on January 20, 2014 on the Ukrainian treasure hunter forum Violity. According to the finder, the hoard was found late at night, but there is no more detailed information about the further circumstances of the find. Judging by the information from the treasure hunter, the bulk of the coins in the hoard were denarii of Vespasian, Trajan and Hadrian, although there was also a coin of Galba, several denarii of Nerva, and 10-12 coins of Antoninus Pius and Faustina (I or II). In the photographs posted with the hoard information, there are images of 26 whole and five fragments of denarii (Vespasian, Terva, Trajan, Hadrian, Antoninus Pius) – these were probably some of the coins that the informant found. The further fate of the coins in the hoard is unknown.",NA,II century
Germany,1932,15482,WINHÖRING,6,183,191,48.265403,12.64678,6 sestertii were found at a gravel pit close to Eisenfeld.,NA,II century
France,1983,7077,CHÂTEAUBLEAU SANCTUARY,6,153,153,48.5922,3.1091,The deposit was found under a second century occupation layer in the central part of the Gallo-Roman spring sanctuary and comprised 4 sestertii from Trajan to Antoninus Pius and two asses of Antoninus Pius with a tpq of AD 153 to 154.,NA,II century
Israel,2006,7729,SHU'AFAT 2006 C,30,113,114,31.814,35.234,The hoard comprised 26 bronze coins dated between 175-164 BC and AD 113-114 with four intruding coins.,Israel Antiquities Authority (IAA 113031-60),II century
Germany,1978,17028,PFUNGSTADT,8,103,111,49.79474,8.55554,"A Roman arm purse was found on a field, southwest of Hahn (today in the district of Pfungstadt), in the vicinity of the Hofgut Grabenbruch. The purse contained 8 Roman denarii, ranging from Galba to Trajan.",NA,II century
Romania,1933,16317,FEDELEȘENI,46,180,192,47.122581,26.974436,"Hoard of at least 46 denarii: Nero – Commodus (AD 180-192). Possible, part of the hoard from Strunga.","National History Museum, Bucharest, Romania (25 coins)",II century
Slovenia,1992,9064,CELJE - SPODNJI GRAD [LOWER CASTLE],4,176,177,46.229,15.261,"4 coins: 1 denarius, 3 sestertii: Vespasian, Hadrian Marcus Aurelius (2)","Pokrajinski muzej Celje, Slovenia",II century
France,1913,7046,COLLÉGIEN,85,180,192,48.837,2.672,"The hoard comprised a ceramic vessel containing 85 sestertii, the majority of which were rendered illegible by oxidation. However, those that could be identified range from issues of Hadrian to Commodus.",NA,II century
Romania,1975,6124,DEALUL PERJULUI,49,140,140,46.455,27.26,(52) 49 denarii found with a ceramic vessel of Carpic manufacture: Vespasian - Antoninus Pius (Diva Faustina I) (post AD 141).,History and Art Museum Bacău,II century
Netherlands,1963,18905,MAASTRICHT-STOKSTRAAT 1963,20,177,177,50.8485,5.694,"A hoard of 20 denarii (Vitellius - Marcus Aurelius), found in a Roman house, in a room next to the furnace of the hypocaust.",NA,II century
Libya,1934,5470,CYRENE AGORÀ 1934,1305,103,112,32.8188,21.8588,"The hoard originally comprised 1,305 Greek/Roman imperial/Roman provincial silver and bronze coins together with gold and silver ancient jewellery. Nowadays 1043 bronze coins and two couple gold earrings are kept in the Archaeological Museum of Shahat. According to the 1934 find report, the missing silver part featured 32 Greek silver coins (280-50 BC, including 16 coins from the Achaean League and four Rhodian drachms), 39 Roman imperial denarii and quinarii (Otho-Trajan, AD 69-116, mint of Rome) and 45 Roman provincial drachms and hemidrachms struck under Trajan (RPC III, 1-3, AD 100). These, as well as 89 sestertii, 77 dupondii, and 128 asses, were probably made in Rome for circulation in Cyrenaica.","Shahat, Archaeological Museum, Libya",II century
"Scotland, United Kingdom",1870,1673,BROCH OF LINGROW,6,177,192,58.96264,-2.984088,"An ensemble of 6 denarii (incl. Vespasian, Hadrian with Clementia on the reverse, 2 Antoninus, 2 Crispina), found during excavations at the broch of Lingro, 1870-71, in different parts of the outbuildings [i.e. of the broch], that may have come from a scattered hoard.",NA,II century
Bulgaria,1939,10112,POPITSA 1939,200,117,138,43.4285,23.9511,(200) 38 denarii: Galba - Hadrian (AD 117-138).,NA,II century
Poland,1910,16213,KOPKI,2,119,122,50.409357,22.305585,"Hoard of unknown number of denarii. Only two pieces are known: Trajan, Hadrian.",NA,II century
Sweden,1931,15529,GANDARVE 1931-1939,4,163,165,57.1953,18.3958,"4 denarii part of a hoard found on the same field like GANDARVE 1927, 1928, 1928-1931: Hadrian, Antoninus Pius, Diva Faustina I, Lucius Verus (AD 163-165).","Collection Hilding Arwidsson, Rone, Finland",II century
Sweden,1870,15587,SINDARVE,1500,193,194,57.24719,18.401563,"Originally, 1,500 denarii and a drachm found with a clay vessel. 1,391 coins preserved: Nero - Septimius Severus (AD 193-194); silver weight: 3,924.6 g. (1.391 coins).","Swedish History Museum, Stockholm (inv.nos. 4391, 4398, 4417)",II century
Belarus,1968,17433,ALIEKŠYCY (ŽUKIEVIČY),446,194,195,53.339356,23.950584,"The first 20 (?) denarii from the hoard were discovered by schoolchildren in 1968, eight of them were transferred to the Coin Room of the Belarusian State University. V. Ryabtsevich tried to establish the place where the hoard was found, but to no avail. In the first hoard's publication the village of Žukievičy was named as its location. After that, at the hoard's place, amateurs conducted further searches for it. Separate denarii were found, two of which (Trajan and Antoninus Pius) were transferred by V. Kakareka to the Coin Room of the Belarusian University. The rest of the hoard was discovered by treasure hunters in 2011 near the village of Aliekšycy: 426 denarii and 18 fragments of brooches, which were donated to the Museum of the National Bank of the Republic of Belarus. Later, 10 more coins were transferred there. In total, 446 coins are known from the hoard (Vespasian-Septimius Severus).",Coin Room of the Belarusian State University (10 coins); Museum of the National Bank of the Republic of Belarus (436 coins),II century
Georgia,1941,16036,MTSKHETA – ARMAZI  1941 1,19,180,192,41.839326,44.663181,"Five aurei found in grave no. 6: Nero, Galba, Hadrian, Antoninus Pius, Commodus (AD 180-192). Together were found 11 drachms of Gotarze and 3 denarii of Augustus.","National Museum of Georgia, Tbilisi",II century
France,1969,8673,VIENNE 1969 B,4,141,161,45.53,4.875,"Grave find of 4 coins: 1 denarius, 1 sestertius, 1 dupondius, 1 as Trajan to Antoninus Pius (AD 141-161).",NA,II century
Bulgaria,1971,12056,PLOVDIV 1971 A,4,180,192,42.135,24.745,"4 silver denarii: Hadrian (Sabina), Marcus Aurelius, Faustina II, Commodus (AD 180-192).","Museum of Archaeology, Plovdiv, Bulgaria; inv. no. 2562",II century
Romania,1932,2593,SARMIZEGETUSA 1932,7,155,156,45.513,22.786,"Seven bronze coins (asses): Trajan – Antoninus Pius (AD 140-144). The coins were placed in a cooking pot with lid together with seven clay lamps, type FORTIS.","Town museum, Sarmizegetusa, Romania",II century
Belgium,1969,5479,LIBERCHIES 1969-1970,368,166,166,50.508,4.446,368 aurei: Nero to Marcus Aurelius (AD 166).,NA,II century
Egypt,1900,7794,TELL UMM EL-BREIGAT A52,119,155,156,29.1066,30.7658,119 Alexandrian billon tetradrachms: Nero - Antoninus Pius (AD 155-156) Found during excavations.,"Museum of Anthropology of the University of California, Berkeley, USA (1935), inv.no. 445",II century
"England, United Kingdom",1956,14556,TEAN,3,194,195,49.963481,-6.3242033,"Penhallurick 2009, 269: ""The museum on St Mary's has three sestertii found in a midden layer on the southern shoreline of Tean in 1956. Accompanying pottery indicated an occupation from the first to the fourth centuries and included sherds of samian ware and a bronze brooch (Thomas 1985, p.183)"". He notes that the second sestertius of Marcus Aurelius listed here may have been turned into a brooch (bronze adhered to the bottom of the reverse), though this has not been verified.",NA,II century
Spain,2010,17592,SEGÓBRIGA 2010,32,138,161,39.8909,-2.8105,32 bronze coins found glued to each other: Domitian - Antoninus Pius (AD 138-161).,NA,II century
"England, United Kingdom",1971,14872,LINCOLN 1971-2,3,141,161,53.227196,-0.548438,"West Parade site Area III, Roman interval tower. In late Roman period, interval tower became derelict, & much of upper part prob. demolished/ robbed. Lower part of tower infilled with demolition debris, incl. ceramic tile frags. & mortar, animal bone waste from food consumption, & bird & animal skeletons, incl. ravens & dogs, frogs & toads, & remains of owl pellets. 3 silver denarii in fine condition also found amongst demolition debris, of Trajan, Hadrian & Faustina, minted in early to mid 2nd C. before tower even built; & it is likely that they were hidden & subsequently lost, poss. as part of a larger hoard, whilst tower was still in use.Gilmour, B. 1999. Excavations. In C. Colyer, B.J.J. Gilmour & B. Jones The Defences of the Lower City. Excavations at The Park and West Parade 1970-2 and a Discussion of Other Sites Excavated up to 1994. The Archaeology of Lincoln VIII-2. CBA Res. Report 114, pp. 191.",NA,II century
France,1853,7012,TRIEL-SUR-SEINE,4,138,161,48.982,2.005,"The hoard was found in a burial which contained 'two middle bronzes of ""Antoninus"" and one of Faustina II, as well as a unidentified sestertius.",NA,II century
France,1682,7232,PLESSIS-DE-ROYE,1505,161,161,49.578,2.833,"The hoard comprised between 1,400 and 1,500 'copper' coins from Nero to Antoninus Pius.",NA,II century
"England, United Kingdom",1847,14616,OLD CLEEVE,8,117,138,51.097074,-3.3866231,"""In 1847 a small pot containing 8 Roman coins - a silver denarius of Trajan and 7 bronze coins, including one of Trajan - was found in cutting through a hedge or earth bank on the boundary between the parishes of Upton and Withiel Florey. Two of the coins are in the Spencer G Perceval collection"" (Pastscape)",NA,II century
France,1983,11679,FLEURINES 1983-1984,2,152,153,49.242,2.6257,"Two aurei, Domitian (Caesar), Marcus Aurelius (Caesar) found in sequential years, in the same forest. Close chronological range.",Private collection,II century
Germany,1962,2953,HEEREN,67,193,193,52.54275,11.88652,"A hoard of denarii, found in a field from 1962 until 2001. FMRD lists 67 coins (Trajan - Pertinax).",NA,II century
"England, United Kingdom",1990,2284,DOWNTON,16,154,155,50.988123,-1.7449252,8 Roman bronze coins to Antoninus Pius plus 8 Durotrigan cast bronze coins,NA,II century
Romania,1942,16302,ONICENI,68,161,180,46.806005,27.1614,Unknown originally number of coins. 68 denarii are kept in the collection of the Library of the Romanian Academy: Republic – Marcus Aurelius (AD 161-180).,"Coin Room, Library of the Romanian Academy, Bucharest, Romania (inv.nos. 29069-29136)",II century
Belgium,1896,8510,MAFFLE,15,180,192,50.617,3.806,15 sestertii found in a grave with ceramic objects: Hadrian - Commodus (AD 180-192).,NA,II century
Bulgaria,1959,10304,GOLESH,32,161,180,43.954,27.6118,120 denarii. 32 were donated to the History Museum in Silistra: Mark Antony - Marcus Aurelius (AD 161-180).,"History Museum, Silistra, Bulgaria; inv.nos. 1241-1272",II century
Romania,2001,9616,SILISTRA-OSTROV 2,4,143,144,44.113,27.317,4 asses found during excavations: Trajan - Antoninus Pius (AD 143-144).,"Muzeul Dunării de Jos, Călărași, Romania; inv.nos. 45373-45376",II century
