id,line,line_name,name,former_name,opened,elevation_m,type,latitude,longitude
1,1,сокольническая,Бульвар Рокоссовского,Улица Подбельского (1990–2014),1990-08-01,-8,"column, triple-span",55.8148,37.7342
2,1,сокольническая,Черкизовская,,1990-08-01,-9,"single-vault, shallow",55.8038888888889,37.7447222222222
3,1,сокольническая,Преображенская площадь,,1965-12-31,-8,"column, triple-span",55.7963888888889,37.715
4,1,сокольническая,Сокольники,,1935-05-15,-9,"column, triple-span",55.7888888888889,37.6802777777778
5,1,сокольническая,Красносельская,,1935-05-15,-8,"column, double-span",55.78,37.6672222222222
6,1,сокольническая,Комсомольская,,1935-05-15,-8,"column, triple-span",55.7752777777778,37.6561111111111
7,1,сокольническая,Красные ворота,Лермонтовская (1962–1986),1935-05-15,-31,"pylon, triple-vault",55.7688888888889,37.6486111111111
8,1,сокольническая,Чистые пруды,Кировская (1935–1990),1935-05-15,-35,"pylon, triple-vault",55.7658333333333,37.6388888888889
9,1,сокольническая,Лубянка,Дзержинская (1935–1990),1935-05-15,-32.5,"pylon, triple-vault",55.7597222222222,37.6272222222222
10,1,сокольническая,Охотный ряд,Имени Кагановича (1955–1957); Проспект Маркса (1961–1990),1935-05-15,-15,"pylon, triple-vault",55.7577777777778,37.6166666666667
11,1,сокольническая,Библиотека имени Ленина,,1935-05-15,-12,"single-vault, shallow",55.7511111111111,37.61
12,1,сокольническая,Кропоткинская,Дворец Советов (1935–1957),1935-05-15,-13,"column, triple-span",55.7452777777778,37.6036111111111
13,1,сокольническая,Парк культуры,ЦПКиО имени Горького (1935–1980),1935-05-15,-10.5,"column, triple-span",55.7355555555556,37.5941666666667
14,1,сокольническая,Фрунзенская,,1957-05-01,-42,"pylon, triple-vault",55.7266666666667,37.5786111111111
15,1,сокольническая,Спортивная,,1957-05-01,-42,"pylon, triple-vault",55.7233333333333,37.5638888888889
16,1,сокольническая,Воробьёвы горы,Ленинские горы (1959–1983),1959-01-12,10,within bridge,55.7102777777778,37.5591666666667
17,1,сокольническая,Университет,,1959-01-12,-26.5,"pylon, triple-vault",55.6925,37.5333333333333
18,1,сокольническая,Проспект Вернадского,,1963-12-30,-8,"column, triple-span",55.6772222222222,37.5061111111111
19,1,сокольническая,Юго-Западная,,1963-12-30,-8,"column, triple-span",55.6636111111111,37.4833333333333
20,1,сокольническая,Тропарёво,,2014-12-08,-12,"single-vault, shallow",55.6458333333333,37.4725
21,1,сокольническая,Румянцево,,2016-01-18,-12,"column, triple-span",55.6330555555556,37.4419444444444
22,1,сокольническая,Саларьево,,2016-02-15,-12,"column, triple-span",55.6227777777778,37.4238888888889
23,1,сокольническая,Филатов Луг,,2019-06-20,0,"surface, open",55.6013888888889,37.4077777777778
24,1,сокольническая,Прокшино,,2019-06-20,0,"surface, open",55.5861111111111,37.4338888888889
25,1,сокольническая,Ольховая,,2019-06-20,-5,"single-span, shallow",55.5686111111111,37.4594444444444
26,1,сокольническая,Коммунарка,,2019-06-20,-5,"column, triple-span",55.5602777777778,37.4683333333333
27,2,замоскворецкая,Ховрино,,2017-12-31,-14,"column, double-span",55.8791666666667,37.4822222222222
28,2,замоскворецкая,Беломорская,,2018-12-20,-25,"column, double-span",55.8658333333333,37.4763888888889
29,2,замоскворецкая,Речной вокзал,,1964-12-31,-6,"column, triple-span",55.855,37.4761111111111
30,2,замоскворецкая,Водный стадион,,1964-12-31,-6,"column, triple-span",55.8397222222222,37.4866666666667
31,2,замоскворецкая,Войковская,,1964-12-31,-7,"column, triple-span",55.8188888888889,37.4980555555556
32,2,замоскворецкая,Сокол,,1938-09-11,-9.6,"column, double-span",55.805,37.5152777777778
33,2,замоскворецкая,Аэропорт,,1938-09-11,-10,"single-vault, shallow",55.8002777777778,37.5327777777778
34,2,замоскворецкая,Динамо,,1938-09-11,-39.6,"pylon, triple-vault",55.7897222222222,37.5580555555556
35,2,замоскворецкая,Белорусская,,1938-09-11,-33.1,"pylon, triple-vault",55.7766666666667,37.5836111111111
36,2,замоскворецкая,Маяковская,,1938-09-11,-33.1,"column, triple-vault",55.77,37.5958333333333
37,2,замоскворецкая,Тверская,Горьковская (1979–1990),1979-07-20,-42,"pylon, triple-vault",55.7647222222222,37.6063888888889
38,2,замоскворецкая,Театральная,Площадь Свердлова (1938–1990),1938-09-11,-33.9,"pylon, triple-vault",55.7577777777778,37.6188888888889
39,2,замоскворецкая,Новокузнецкая,,1943-11-20,-37.5,"pylon, triple-vault",55.7413888888889,37.6294444444444
40,2,замоскворецкая,Павелецкая,,1943-11-20,-33.5,"column, triple-vault",55.7305555555556,37.6377777777778
41,2,замоскворецкая,Автозаводская,Завод имени Сталина (1943–1956),1943-01-01,-11,"column, triple-span",55.7075,37.6575
42,2,замоскворецкая,Технопарк,,2015-12-28,0,"surface, open",55.695,37.6641666666667
43,2,замоскворецкая,Коломенская,,1969-08-11,-9,"column, triple-span",55.6786111111111,37.6638888888889
44,2,замоскворецкая,Каширская,,1969-08-11,-7,"column, triple-span",55.655,37.6486111111111
45,2,замоскворецкая,Кантемировская,,1984-12-30,-8,"single-vault, shallow",55.6358333333333,37.6563888888889
46,2,замоскворецкая,Царицыно,Ленино (1984–1990),1984-12-30,-8,"column, triple-span",55.6213888888889,37.6694444444444
47,2,замоскворецкая,Орехово,,1984-12-30,-9,"column, triple-span",55.6133333333333,37.695
48,2,замоскворецкая,Домодедовская,,1985-09-07,-9.5,"column, triple-span",55.6108333333333,37.7186111111111
49,2,замоскворецкая,Красногвардейская,,1985-09-07,-9,"single-vault, shallow",55.6136111111111,37.7444444444444
50,2,замоскворецкая,Алма-Атинская,,2012-12-24,-10,"single-vault, shallow",55.6325,37.7661111111111
51,3,арбатско-покровская,Пятницкое Шоссе,,2012-12-28,-11,"column, double-span",55.8563888888889,37.3544444444444
52,3,арбатско-покровская,Митино,,2009-12-26,-14,"single-vault, shallow",55.8458333333333,37.3622222222222
53,3,арбатско-покровская,Волоколамская,,2009-12-26,-14,"column, triple-span",55.8352777777778,37.3822222222222
54,3,арбатско-покровская,Мякинино,,2009-12-26,0,"surface, single-span",55.8252777777778,37.3852777777778
55,3,арбатско-покровская,Строгино,,2008-01-07,-8,"single-vault, shallow",55.8038888888889,37.4030555555556
56,3,арбатско-покровская,Крылатское,,1989-12-31,-9.5,"single-vault, shallow",55.7566666666667,37.4080555555556
57,3,арбатско-покровская,Молодёжная,,1965-07-05,-6.5,"column, triple-span",55.7408333333333,37.4166666666667
58,3,арбатско-покровская,Кунцевская,,2008-01-07,0,"surface, open",55.7308333333333,37.4458333333333
59,3,арбатско-покровская,Славянский бульвар,,2008-09-07,-8.5,"single-vault, shallow",55.7297222222222,37.4705555555556
60,3,арбатско-покровская,Парк Победы,,2003-05-06,-84,"pylon, triple-vault",55.7361111111111,37.5183333333333
61,3,арбатско-покровская,Киевская,,1953-04-05,-38,"pylon, triple-vault",55.7441666666667,37.5644444444444
62,3,арбатско-покровская,Смоленская,,1953-04-05,-50,"pylon, triple-vault",55.7475,37.5822222222222
63,3,арбатско-покровская,Арбатская,,1953-04-05,-41,"pylon, triple-vault",55.7522222222222,37.6061111111111
64,3,арбатско-покровская,Площадь Революции,,1938-03-13,-33.6,"pylon, triple-vault",55.7566666666667,37.6216666666667
65,3,арбатско-покровская,Курская,,1938-03-13,-30.7,"pylon, triple-vault",55.7575,37.6577777777778
66,3,арбатско-покровская,Бауманская,,1944-01-18,-32.5,"pylon, triple-vault",55.7730555555556,37.6805555555555
67,3,арбатско-покровская,Электрозаводская,,1944-05-15,-31.5,"pylon, triple-vault",55.7816666666667,37.7036111111111
68,3,арбатско-покровская,Семёновская,Сталинская (1944–1961),1944-01-18,-40,"pylon, triple-vault",55.7833333333333,37.7208333333333
69,3,арбатско-покровская,Партизанская,Измайловский парк культуры и отдыха имени Сталина (1944-1947); Измайловская (1947–1963); Измайловский парк (1963–2005),1944-01-18,-9,"column, triple-span",55.7886111111111,37.7505555555556
70,3,арбатско-покровская,Измайловская,Измайловский парк (1961–1963),1961-10-21,0,"surface, open",55.7877777777778,37.7813888888889
71,3,арбатско-покровская,Первомайская,,1961-10-21,-7,"column, triple-span",55.7947222222222,37.7991666666667
72,3,арбатско-покровская,Щёлковская,,1963-07-22,-8,"column, triple-span",55.8094444444444,37.7986111111111
73,4,филевская,Кунцевская,,1965-08-31,0,"surface, open",55.7308333333333,37.4458333333333
74,4,филевская,Пионерская,,1961-10-13,0,"surface, open",55.7361111111111,37.4672222222222
75,4,филевская,Филёвский парк,,1961-10-13,0,"surface, open",55.7397222222222,37.4833333333333
76,4,филевская,Багратионовская,,1961-10-13,0,"surface, open",55.7438888888889,37.4977777777778
77,4,филевская,Фили,,1959-11-07,0,"surface, open",55.7461111111111,37.515
78,4,филевская,Кутузовская,,1958-11-07,0,"surface, open",55.74,37.5344444444444
79,4,филевская,Студенческая,,1958-11-07,0,"surface, open",55.7388888888889,37.5483333333333
80,4a,филевская,Международная,,2006-08-30,-25,"column, triple-vault",55.7483333333333,37.5338888888889
81,4a,филевская,Выставочная,Деловой центр (2005–2009),2005-09-10,-25,"column, triple-span",55.7502777777778,37.5408333333333
82,4;4a,филевская,Киевская,,1937-03-20,-8.7,"column, triple-span",55.7436111111111,37.5655555555556
83,4;4a,филевская,Смоленская,,1935-05-15,-8,"column, triple-span",55.7488888888889,37.5825
84,4;4a,филевская,Арбатская,,1935-05-15,-8,"column, triple-span",55.7516666666667,37.6008333333333
85,4,филевская,Александровский сад,Улица Коминтерна (1935–1946); Калининская (1946-1990); Воздвиженка (1990),1935-05-15,-7,"column, four-span",55.7525,37.6086111111111
86,5,кольцевая,Киевская,,1954-03-14,-48,"pylon, triple-vault",55.7447222222222,37.5644444444444
87,5,кольцевая,Краснопресненская,,1954-03-14,-35.5,"pylon, triple-vault",55.7613888888889,37.5775
88,5,кольцевая,Белорусская,,1952-01-30,-42.5,"pylon, triple-vault",55.7763888888889,37.5844444444444
89,5,кольцевая,Новослободская,,1952-01-30,-40,"pylon, triple-vault",55.78,37.6027777777778
90,5,кольцевая,Проспект Мира,Ботанический сад (1952–1966),1952-01-30,-40,"pylon, triple-vault",55.7797222222222,37.6316666666667
91,5,кольцевая,Комсомольская,,1952-01-30,-37,"column, triple-vault",55.7747222222222,37.655
92,5,кольцевая,Курская,,1950-01-01,-40,"column, triple-vault",55.7569444444444,37.6594444444444
93,5,кольцевая,Таганская,,1950-01-01,-53,"pylon, triple-vault",55.7416666666667,37.6516666666667
94,5,кольцевая,Павелецкая,,1950-01-01,-40,"pylon, triple-vault",55.7316666666667,37.6377777777778
95,5,кольцевая,Добрынинская,Серпуховская (1950–1961),1950-01-01,-35.5,"pylon, triple-vault",55.7291666666667,37.6241666666667
96,5,кольцевая,Октябрьская,Калужская (1950–1961),1950-01-01,-40,"pylon, triple-vault",55.7297222222222,37.6091666666667
97,5,кольцевая,Парк культуры,Парк Культуры имени Горького (1950–1980),1950-01-01,-40,"pylon, triple-vault",55.7358333333333,37.5913888888889
98,6,калужско-рижская,Медведково,,1978-09-30,-10,"column, triple-span",55.8872222222222,37.6613888888889
99,6,калужско-рижская,Бабушкинская,,1978-09-30,-10,"single-vault, shallow",55.8694444444445,37.6644444444444
100,6,калужско-рижская,Свиблово,,1978-09-30,-8,"column, triple-span",55.8552777777778,37.6527777777778
101,6,калужско-рижская,Ботанический сад,,1978-09-30,-7,"column, triple-span",55.845,37.6383333333333
102,6,калужско-рижская,ВДНХ,ВСХВ (1958–1959),1958-05-01,-53.5,"pylon, triple-vault",55.8211111111111,37.6411111111111
103,6,калужско-рижская,Алексеевская,Мир (1958–1966); Щербаковская (1966–1990),1958-05-01,-51,"pylon, triple-vault",55.8088888888889,37.6388888888889
104,6,калужско-рижская,Рижская,,1958-05-01,-46,"pylon, triple-vault",55.7936111111111,37.6361111111111
105,6,калужско-рижская,Проспект Мира,Ботанический сад (1958–1966),1958-05-01,-50,"pylon, triple-vault",55.7811111111111,37.6316666666667
106,6,калужско-рижская,Сухаревская,Колхозная (1972–1990),1972-01-05,-43,"pylon, triple-vault",55.7733333333333,37.6319444444444
107,6,калужско-рижская,Тургеневская,,1972-01-05,-49,"pylon, triple-vault",55.7661111111111,37.6375
108,6,калужско-рижская,Китай-город,Площадь Ногина (1971–1990),1971-01-03,-29,"column, triple-vault",55.7552777777778,37.6333333333333
109,6,калужско-рижская,Третьяковская,Новокузнецкая (1971–1983),1971-01-03,-46,"pylon, triple-vault",55.7411111111111,37.6275
110,6,калужско-рижская,Октябрьская,,1962-10-13,-50,"pylon, triple-vault",55.7305555555556,37.6111111111111
111,6,калужско-рижская,Шаболовская,,1980-11-06,-46.5,"pylon, triple-vault",55.7197222222222,37.6083333333333
112,6,калужско-рижская,Ленинский проспект,,1962-10-13,-16,"column, triple-span",55.7077777777778,37.5861111111111
113,6,калужско-рижская,Академическая,,1962-10-13,-8.5,"column, triple-span",55.6877777777778,37.5733333333333
114,6,калужско-рижская,Профсоюзная,,1962-10-13,-7,"column, triple-span",55.6780555555556,37.5627777777778
115,6,калужско-рижская,Новые Черёмушки,,1962-10-13,-7,"column, triple-span",55.6702777777778,37.5544444444444
116,6,калужско-рижская,Калужская,,1974-08-12,-10,"column, triple-span",55.6572222222222,37.5405555555556
117,6,калужско-рижская,Беляево,,1974-08-12,-12,"column, triple-span",55.6427777777778,37.5258333333333
118,6,калужско-рижская,Коньково,,1987-11-06,-8,"single-vault, shallow",55.6333333333333,37.5188888888889
119,6,калужско-рижская,Тёплый Стан,,1987-11-06,-8,"column, triple-span",55.6191666666667,37.5083333333333
120,6,калужско-рижская,Ясенево,,1990-01-17,-8,"column, triple-span",55.6063888888889,37.5333333333333
121,6,калужско-рижская,Новоясеневская,Битцевский парк (1990–2009),1990-01-17,-7,"column, triple-span",55.6011111111111,37.5541666666667
122,7,таганско-краснопресненская,Планерная,,1975-12-30,-6,"column, triple-span",55.8608333333333,37.4363888888889
123,7,таганско-краснопресненская,Сходненская,,1975-12-30,-6,"single-vault, shallow",55.8505555555556,37.4397222222222
124,7,таганско-краснопресненская,Тушинская,,1975-12-30,-10.5,"column, triple-span",55.8266666666667,37.4366666666667
125,7,таганско-краснопресненская,Спартак,,2014-08-27,-10,"column, triple-span",55.8183333333333,37.4352777777778
126,7,таганско-краснопресненская,Щукинская,,1975-12-30,-13,"column, triple-span",55.8086111111111,37.4641666666667
127,7,таганско-краснопресненская,Октябрьское поле,,1972-12-30,-11,"column, triple-span",55.7936111111111,37.4936111111111
128,7,таганско-краснопресненская,Полежаевская,,1972-12-30,-10,"column, triple-span",55.7775,37.5191666666667
129,7,таганско-краснопресненская,Беговая,,1972-12-30,-9,"column, triple-span",55.7738888888889,37.5466666666667
130,7,таганско-краснопресненская,Улица 1905 года,,1972-12-30,-11,"column, triple-span",55.765,37.5613888888889
131,7,таганско-краснопресненская,Баррикадная,,1972-12-30,-30,"pylon, triple-vault",55.7611111111111,37.5794444444444
132,7,таганско-краснопресненская,Пушкинская,,1975-12-17,-51,"column, triple-vault",55.765,37.6077777777778
133,7,таганско-краснопресненская,Кузнецкий мост,,1975-12-17,-39.5,"column, triple-vault",55.7605555555556,37.6258333333333
134,7,таганско-краснопресненская,Китай-город,Площадь Ногина (1971–1990),1971-01-03,-29,"column, triple-vault",55.7552777777778,37.6333333333333
135,7,таганско-краснопресненская,Таганская,,1966-12-31,-36,"pylon, triple-vault",55.7402777777778,37.6522222222222
136,7,таганско-краснопресненская,Пролетарская,,1966-12-31,-9,"column, triple-span",55.7319444444445,37.6658333333333
137,7,таганско-краснопресненская,Волгоградский проспект,,1966-12-31,-8,"column, triple-span",55.7252777777778,37.6869444444444
138,7,таганско-краснопресненская,Текстильщики,,1966-12-31,-13,"column, triple-span",55.7088888888889,37.7316666666667
139,7,таганско-краснопресненская,Кузьминки,,1966-12-31,-8,"column, triple-span",55.7055555555556,37.7655555555556
140,7,таганско-краснопресненская,Рязанский проспект,,1966-12-31,-6,"column, triple-span",55.7169444444445,37.7933333333333
141,7,таганско-краснопресненская,Выхино,Ждановская (1966−1989),1966-12-31,0,"surface, open",55.7155555555556,37.8180555555556
142,7,таганско-краснопресненская,Лермонтовский проспект,,2013-11-09,-12,"single-vault, shallow",55.7013888888889,37.8525
143,7,таганско-краснопресненская,Жулебино,,2013-11-09,-15,"column, double-span",55.6855555555556,37.8563888888889
144,7,таганско-краснопресненская,Котельники,,2015-09-21,-15,"column, double-span",55.6741666666667,37.8583333333333
145,8a,калининско-солнцевская,Аэропорт Внуково,,2023-09-06,0,"column, double-span",55.6066666666667,37.2883333333333
146,8a,калининско-солнцевская,Пыхтино,,2023-09-06,0,"surface, open (semi-underground)",55.625,37.2980555555556
147,8a,калининско-солнцевская,Рассказовка,,2018-08-30,-12,"column, double-span",55.6338888888889,37.3347222222222
148,8a,калининско-солнцевская,Новопеределкино,,2018-08-30,-16,"column, double-span",55.6397222222222,37.3552777777778
149,8a,калининско-солнцевская,Боровское Шоссе,,2018-08-30,-20,"column, double-span",55.6475,37.37
150,8a,калининско-солнцевская,Солнцево,,2018-08-30,-13,"column, double-span",55.6491666666667,37.3908333333333
151,8a,калининско-солнцевская,Говорово,,2018-08-30,-14,"column, double-span",55.6594444444445,37.4172222222222
152,8a,калининско-солнцевская,Озёрная,,2018-08-30,-25,"column, double-span",55.6708333333333,37.4491666666667
153,8a,калининско-солнцевская,Мичуринский проспект,,2018-08-30,-13,"column, triple-span",55.6897222222222,37.4833333333333
154,8a,калининско-солнцевская,Раменки,,2017-03-16,-15,"column, double-span",55.6975,37.4983333333333
155,8a,калининско-солнцевская,Ломоносовский проспект,,2017-03-16,-15,"column, double-span",55.7069444444444,37.5155555555556
156,8a,калининско-солнцевская,Минская,,2017-03-16,-15,"column, double-span",55.7247222222222,37.4969444444444
157,8a,калининско-солнцевская,Парк Победы,,2003-05-06,-73.6,"pylon, triple-vault",55.7361111111111,37.5183333333333
158,8a,калининско-солнцевская,Деловой центр,,2014-01-31,-30,"column, triple-span",55.7475,37.5319444444444
159,8,калининско-солнцевская,Третьяковская,Новокузнецкая (1971–1983),1986-01-25,-46,"pylon, triple-vault",55.7411111111111,37.6275
160,8,калининско-солнцевская,Марксистская,,1979-12-30,-60,"column, triple-vault",55.7411111111111,37.6541666666667
161,8,калининско-солнцевская,Площадь Ильича,,1979-12-30,-46,"pylon, triple-vault",55.7472222222222,37.6825
162,8,калининско-солнцевская,Авиамоторная,,1979-12-30,-53,"column, triple-vault",55.7525,37.7191666666667
163,8,калининско-солнцевская,Шоссе Энтузиастов,,1979-12-30,-53,"pylon, triple-vault",55.7575,37.75
164,8,калининско-солнцевская,Перово,,1979-12-30,-9,"single-vault, shallow",55.7511111111111,37.7866666666667
165,8,калининско-солнцевская,Новогиреево,,1979-12-30,-9,"column, triple-span",55.7516666666667,37.8166666666667
166,8,калининско-солнцевская,Новокосино,,2012-08-30,-9,"single-vault, shallow",55.745,37.8638888888889
167,9,серпуховско-темирязевская,Алтуфьево,,1994-07-15,-9,"single-vault, shallow",55.8980555555556,37.5869444444444
168,9,серпуховско-темирязевская,Бибирево,,1992-12-31,-9.5,"column, triple-span",55.8838888888889,37.6033333333333
169,9,серпуховско-темирязевская,Отрадное,,1991-03-01,-9,"single-vault, shallow",55.8633333333333,37.6047222222222
170,9,серпуховско-темирязевская,Владыкино,,1991-03-01,-10.5,"column, triple-span",55.8472222222222,37.59
171,9,серпуховско-темирязевская,Петровско-Разумовская,,1991-03-01,-61,"column, triple-vault",55.835,37.5744444444444
172,9,серпуховско-темирязевская,Тимирязевская,,1991-03-01,-63.5,"single-vault, deep",55.8175,37.5763888888889
173,9,серпуховско-темирязевская,Дмитровская,,1991-03-01,-59,"pylon, triple-vault",55.8069444444444,37.5816666666667
174,9,серпуховско-темирязевская,Савёловская,,1988-12-31,-52,"pylon, triple-vault",55.7927777777778,37.5886111111111
175,9,серпуховско-темирязевская,Менделеевская,,1988-12-31,-48.5,"column, triple-vault",55.7811111111111,37.6011111111111
176,9,серпуховско-темирязевская,Цветной бульвар,,1988-12-31,-50,"pylon, triple-vault",55.7708333333333,37.6186111111111
177,9,серпуховско-темирязевская,Чеховская,,1987-12-31,-62,"pylon, triple-vault",55.7644444444444,37.6097222222222
178,9,серпуховско-темирязевская,Боровицкая,,1986-01-23,-46.5,"pylon, triple-vault",55.7511111111111,37.6072222222222
179,9,серпуховско-темирязевская,Полянка,,1986-01-23,-36.5,"column, triple-vault",55.7377777777778,37.6180555555556
180,9,серпуховско-темирязевская,Серпуховская,,1983-11-08,-43,"pylon, triple-vault",55.7280555555556,37.6247222222222
181,9,серпуховско-темирязевская,Тульская,,1983-11-08,-9.5,"single-vault, shallow",55.7086111111111,37.6227777777778
182,9,серпуховско-темирязевская,Нагатинская,,1983-11-08,-13.5,"column, triple-span",55.6830555555556,37.6225
183,9,серпуховско-темирязевская,Нагорная,,1983-11-08,-9,"column, triple-span",55.6725,37.6102777777778
184,9,серпуховско-темирязевская,Нахимовский проспект,,1983-11-08,-9.5,"single-vault, shallow",55.6627777777778,37.6055555555556
185,9,серпуховско-темирязевская,Севастопольская,,1983-11-08,-13,"column, triple-span",55.6525,37.5983333333333
186,9,серпуховско-темирязевская,Чертановская,,1983-11-08,-10.5,"column, triple-span",55.6405555555556,37.6066666666667
187,9,серпуховско-темирязевская,Южная,,1983-11-08,-10,"single-vault, shallow",55.6225,37.6088888888889
188,9,серпуховско-темирязевская,Пражская,,1985-11-06,-9.5,"column, triple-span",55.6125,37.6044444444444
189,9,серпуховско-темирязевская,Улица Академика Янгеля,,2000-08-31,-8,"single-vault, shallow",55.595,37.6002777777778
190,9,серпуховско-темирязевская,Аннино,,2001-12-12,-8,"single-vault, shallow",55.5827777777778,37.5966666666667
191,9,серпуховско-темирязевская,Бульвар Дмитрия Донского,,2002-12-26,-10,"column, triple-span",55.5691666666667,37.5769444444444
192,10,люблинско-дмитровская,Физтех,,2023-09-07,-25,"column, triple-span",55.9226,37.5467
193,10,люблинско-дмитровская,Лианозово,,2023-09-07,-25,"column, triple-span",55.8975,37.5445
194,10,люблинско-дмитровская,Яхромская,,2023-09-07,-25,"column, triple-span",55.8798055555556,37.5456111111111
195,10,люблинско-дмитровская,Селигерская,,2018-03-22,-20,"column, triple-span",55.865,37.5483333333333
196,10,люблинско-дмитровская,Верхние Лихоборы,,2018-03-22,-65,"pylon, triple-vault",55.8558333333333,37.5611111111111
197,10,люблинско-дмитровская,Окружная,,2018-03-22,-65,"pylon, triple-vault",55.8461111111111,37.5741666666667
198,10,люблинско-дмитровская,Петровско-Разумовская,,1991-03-01,-61,"column, triple-vault",55.835,37.5744444444444
199,10,люблинско-дмитровская,Фонвизинская,,2016-09-16,-65,"pylon, triple-vault",55.8227777777778,37.5880555555556
200,10,люблинско-дмитровская,Бутырская,,2016-09-16,-60,"pylon, triple-vault",55.8133333333333,37.6027777777778
201,10,люблинско-дмитровская,Марьина Роща,,2010-06-19,-60,"pylon, triple-vault",55.7952777777778,37.6161111111111
202,10,люблинско-дмитровская,Достоевская,,2010-06-19,-60,"column, triple-vault",55.7816666666667,37.615
203,10,люблинско-дмитровская,Трубная,,2007-08-30,-60,"column, triple-vault",55.7688888888889,37.62
204,10,люблинско-дмитровская,Сретенский бульвар,,2007-12-29,-60,"pylon, triple-vault",55.7666666666667,37.6391666666667
205,10,люблинско-дмитровская,Чкаловская,,1995-12-28,-51,"pylon, triple-vault",55.7563888888889,37.6572222222222
206,10,люблинско-дмитровская,Римская,,1995-12-28,-54,"column, triple-vault",55.7463888888889,37.6819444444444
207,10,люблинско-дмитровская,Крестьянская застава,,1995-12-28,-47,"column, triple-vault",55.7330555555556,37.6672222222222
208,10,люблинско-дмитровская,Дубровка,,1999-12-11,-62,"column, triple-vault",55.7186111111111,37.6761111111111
209,10,люблинско-дмитровская,Кожуховская,,1995-12-28,-12,"single-vault, shallow",55.7075,37.685
210,10,люблинско-дмитровская,Печатники,,1995-12-28,-4,"column, triple-span",55.6933333333333,37.7269444444444
211,10,люблинско-дмитровская,Волжская,,1995-12-28,-8,single-span,55.6908333333333,37.7530555555556
212,10,люблинско-дмитровская,Люблино,,1996-12-25,-8,"single-vault, shallow",55.6758333333333,37.7616666666667
213,10,люблинско-дмитровская,Братиславская,,1996-12-25,-8,"column, double-span",55.6597222222222,37.7505555555556
214,10,люблинско-дмитровская,Марьино,,1996-12-25,-8,single-span,55.65,37.7430555555556
215,10,люблинско-дмитровская,Борисово,,2011-12-02,-10,"single-vault, shallow",55.6333333333333,37.7436111111111
216,10,люблинско-дмитровская,Шипиловская,,2011-12-02,-10,"single-vault, shallow",55.6211111111111,37.7436111111111
217,10,люблинско-дмитровская,Зябликово,,2011-12-02,-15,"single-vault, shallow",55.6125,37.7452777777778
218,11,большая кольцевая,Марьина Роща,,2023-03-01,-60,,55.798,37.618
219,11,большая кольцевая,Рижская,,2023-03-01,-64,,55.792483,37.633906
220,11,большая кольцевая,Сокольники,,2023-03-01,-34,,55.7902777777778,37.6788888888889
221,11,большая кольцевая,Электрозаводская,,2020-12-31,-20,"column, triple-span",55.7802777777778,37.7030555555556
222,11,большая кольцевая,Лефортово,,2020-03-27,-23,"column, double-span",55.7647222222222,37.7066666666667
223,11,большая кольцевая,Авиамоторная,,2020-03-27,-19,"column, triple-span",55.7536111111111,37.7191666666667
224,11,большая кольцевая,Нижегородская,,2020-03-27,-22,"column, triple-span",55.7316666666667,37.73
225,11,большая кольцевая,Текстильщики,,2023-03-01,-22,,55.7069444444444,37.7283333333333
226,11,большая кольцевая,Печатники,,2023-03-01,-30,,55.6938888888889,37.7269444444444
227,11,большая кольцевая,Нагатинский затон,,2023-03-01,-27,,55.6844444444444,37.705
228,11,большая кольцевая,Кленовый бульвар,,2023-03-01,-24,,55.6755555555556,37.6847222222222
229,11,большая кольцевая,Каширская,,1969-08-11,-7,"column, triple-span",55.655,37.6486111111111
230,11,большая кольцевая,Варшавская,,1969-08-11,-9,"column, double-span",55.6533333333333,37.6194444444444
231,11,большая кольцевая,Каховская,,1969-08-11,-8,"column, triple-span",55.6530555555556,37.5983333333333
232,11,большая кольцевая,Зюзино,,2021-12-07,-17,"column, double-span",55.6563888888889,37.5722222222222
233,11,большая кольцевая,Воронцовская,,2021-12-07,-23,"column, triple-span",55.6586111111111,37.54
234,11,большая кольцевая,Новаторская,,2021-12-07,-11,"column, double-span",55.67,37.5216666666667
235,11,большая кольцевая,Проспект Вернадского,,2021-12-07,-16,"column, triple-span",55.6777777777778,37.505
236,11,большая кольцевая,Мичуринский проспект,,2021-12-07,-19,"column, triple-span",55.6883333333333,37.485
237,11,большая кольцевая,Аминьевская,,2021-12-07,-33,"column, triple-span",55.6972222222222,37.4641666666667
238,11,большая кольцевая,Давыдково,,2021-12-07,-33,"column, double-span",55.7152777777778,37.4516666666667
239,11,большая кольцевая,Кунцевская,,2021-12-07,-31,"column, triple-span",55.7302777777778,37.4458333333333
240,11,большая кольцевая,Терехово,,2021-12-07,-22,"column, triple-span",55.7491666666667,37.4605555555556
241,11,большая кольцевая,Мнёвники,,2021-04-01,-28,"column, triple-span",55.7586111111111,37.4708333333333
242,11,большая кольцевая,Народное Ополчение,,2021-04-01,-27,"column, triple-span",55.7738888888889,37.4844444444444
243,11,большая кольцевая,Деловой центр,,2018-02-26,-30,"column, triple-span",55.7475,37.5319444444444
244,11,большая кольцевая,Шелепиха,,2018-02-26,-18,"column, triple-span",55.7566666666667,37.5261111111111
245,11,большая кольцевая,Хорошёвская,,2018-02-26,-21,"column, triple-span",55.7766666666667,37.5208333333333
246,11,большая кольцевая,ЦСКА,,2018-02-26,-28,"column, triple-span",55.7866666666667,37.5333333333333
247,11,большая кольцевая,Петровский парк,,2018-02-26,-25,"column, triple-span",55.7916666666667,37.5572222222222
248,11,большая кольцевая,Савёловская,,2018-12-30,-65,"pylon, triple-vault",55.7936111111111,37.5880555555556
249,12,бутовская,Битцевский парк,,2014-02-27,-10,"single-vault, shallow",55.6002777777778,37.5561111111111
250,12,бутовская,Лесопарковая,,2014-02-27,-10,"single-vault, shallow",55.5822222222222,37.5769444444444
251,12,бутовская,Улица Старокачаловская,,2003-12-27,-10,"single-span, two halls",55.5688888888889,37.5766666666667
252,12,бутовская,Улица Скобелевская,,2003-12-27,9.6,"elevated, open",55.5480555555556,37.5547222222222
253,12,бутовская,Бульвар Адмирала Ушакова,,2003-12-27,9.6,"elevated, open",55.5455555555556,37.5430555555556
254,12,бутовская,Улица Горчакова,,2003-12-27,9.6,"elevated, open",55.5416666666667,37.5308333333333
255,12,бутовская,Бунинская аллея,,2003-12-27,9.6,"elevated, open",55.5380555555556,37.5158333333333
256,13,московский монорельс,Тимирязевская,,2004-11-20,6,"elevated, open",55.8188888888889,37.5788888888889
257,13,московский монорельс,Улица Милашенкова,,2004-11-20,6,"elevated, open",55.8216666666667,37.5911111111111
258,13,московский монорельс,Телецентр,,2004-11-20,6,"elevated, open",55.8216666666667,37.6088888888889
259,13,московский монорельс,Улица Академика Королёва,,2004-11-20,12,"elevated, open",55.8216666666667,37.6269444444444
260,13,московский монорельс,Выставочный центр,,2004-11-20,6,"elevated, open",55.8238888888889,37.6383333333333
261,13,московский монорельс,Улица Сергея Эйзенштейна,,2004-11-20,6,"elevated, open",55.8291666666667,37.645
262,14,московское центральное кольцо,Окружная,,2016-09-10,0,surface,55.8472222222222,37.5694444444444
263,14,московское центральное кольцо,Владыкино,,2016-09-10,0,surface,55.8475,37.5930555555556
264,14,московское центральное кольцо,Ботанический сад,,2016-09-10,0,surface,55.8461111111111,37.6413888888889
265,14,московское центральное кольцо,Ростокино,,2016-09-10,0,surface,55.84,37.6652777777778
266,14,московское центральное кольцо,Белокаменная,,2016-09-10,0,surface,55.83,37.7005555555556
267,14,московское центральное кольцо,Бульвар Рокоссовского,,2016-09-10,0,surface,55.8172222222222,37.7369444444444
268,14,московское центральное кольцо,Локомотив,,2016-09-10,0,surface,55.8038888888889,37.7461111111111
269,14,московское центральное кольцо,Измайлово,,2016-09-10,0,surface,55.7886111111111,37.7427777777778
270,14,московское центральное кольцо,Соколиная Гора,,2016-10-11,0,surface,55.7713888888889,37.745
271,14,московское центральное кольцо,Шоссе Энтузиастов,,2016-09-10,0,surface,55.7588888888889,37.7463888888889
272,14,московское центральное кольцо,Андроновка,,2016-09-10,0,surface,55.7411111111111,37.7344444444444
273,14,московское центральное кольцо,Нижегородская,,2016-09-10,5,elevated,55.7322222222222,37.7283333333333
274,14,московское центральное кольцо,Новохохловская,,2016-09-10,0,surface,55.7238888888889,37.7161111111111
275,14,московское центральное кольцо,Угрешская,,2016-09-10,0,surface,55.7183333333333,37.6977777777778
276,14,московское центральное кольцо,Дубровка,,2016-10-11,0,surface,55.7183333333333,37.6977777777778
277,14,московское центральное кольцо,Автозаводская,,2016-09-10,0,surface,55.7063888888889,37.6630555555556
278,14,московское центральное кольцо,ЗИЛ,,2016-09-10,0,surface,55.6983333333333,37.6483333333333
279,14,московское центральное кольцо,Верхние Котлы,,2016-09-10,0,surface,55.69,37.6188888888889
280,14,московское центральное кольцо,Крымская,,2016-09-10,0,surface,55.69,37.605
281,14,московское центральное кольцо,Площадь Гагарина,,2016-09-10,-5,underground,55.7069444444444,37.5858333333333
282,14,московское центральное кольцо,Лужники,,2016-09-10,5,surface,55.7202777777778,37.5630555555556
283,14,московское центральное кольцо,Кутузовская,,2016-09-10,0,surface,55.7408333333333,37.5333333333333
284,14,московское центральное кольцо,Деловой центр,,2016-09-10,7,elevated,55.7472222222222,37.5322222222222
285,14,московское центральное кольцо,Шелепиха,,2016-09-10,5,elevated,55.7575,37.5255555555556
286,14,московское центральное кольцо,Хорошёво,,2016-09-10,0,surface,55.7772222222222,37.5072222222222
287,14,московское центральное кольцо,Зорге,,2016-11-04,0,surface,55.7877777777778,37.5044444444444
288,14,московское центральное кольцо,Панфиловская,,2016-11-08,0,surface,55.7991666666667,37.4988888888889
289,14,московское центральное кольцо,Стрешнево,,2016-09-10,0,surface,55.8136111111111,37.4869444444444
290,14,московское центральное кольцо,Балтийская,,2016-09-10,0,surface,55.8258333333333,37.4961111111111
291,14,московское центральное кольцо,Коптево,,2016-11-01,0,surface,55.8397222222222,37.5202777777778
292,14,московское центральное кольцо,Лихоборы,,2016-09-10,0,surface,55.8472222222222,37.5513888888889
293,15,некрасовская,Нижегородская,,2020-03-27,-22,"column, triple-span",55.7316666666667,37.73
294,15,некрасовская,Стахановская,,2020-03-27,-19,"column, triple-span",55.725,37.7619444444444
295,15,некрасовская,Окская,,2020-03-27,-20,"column, triple-span",55.7186111111111,37.7816666666667
296,15,некрасовская,Юго-Восточная,,2020-03-27,-20,"column, triple-span",55.705,37.8188888888889
297,15,некрасовская,Косино,,2019-06-03,-27,"column, triple-span",55.7033333333333,37.8511111111111
298,15,некрасовская,Улица Дмитриевского,,2019-06-03,-18,"column, double-span",55.71,37.8791666666667
299,15,некрасовская,Лухмановская,,2019-06-03,-15,"column, triple-span",55.7086111111111,37.9002777777778
300,15,некрасовская,Некрасовка,,2019-06-03,-16,"column, double-span",55.7036111111111,37.9263888888889
